[
  {
    "id": 2672,
    "name": "REMCHI",
    "latitude": "35.0617268",
    "longitude": "-1.4318326",
    "wilaya_id": 13
  },
  {
    "id": 2673,
    "name": "BENI SAF",
    "latitude": "35.3025458",
    "longitude": "-1.382036",
    "wilaya_id": 46
  },
  {
    "id": 2674,
    "name": "OUED EL ALLEUG",
    "latitude": "36.5558374",
    "longitude": "2.7896358",
    "wilaya_id": 9
  },
  {
    "id": 2675,
    "name": "BOUDJIMA",
    "latitude": "36.8047072",
    "longitude": "4.14884",
    "wilaya_id": 15
  },
  {
    "id": 2676,
    "name": "EL HAMMA",
    "latitude": "35.4716036",
    "longitude": "7.0856456",
    "wilaya_id": 40
  },
  {
    "id": 2677,
    "name": "AIN MLILA",
    "latitude": "36.0375444",
    "longitude": "6.570986",
    "wilaya_id": 4
  },
  {
    "id": 2678,
    "name": "DRAA BEN KHEDDA",
    "latitude": "36.7333317",
    "longitude": "3.9587692",
    "wilaya_id": 15
  },
  {
    "id": 2679,
    "name": "OUED ZENATI",
    "latitude": "36.3130761",
    "longitude": "7.164528",
    "wilaya_id": 24
  },
  {
    "id": 2680,
    "name": "SOUK EL THENINE",
    "latitude": "36.6251894",
    "longitude": "5.3365523",
    "wilaya_id": 6
  },
  {
    "id": 2681,
    "name": "OUED RHIOU",
    "latitude": "35.9607535",
    "longitude": "0.9180664",
    "wilaya_id": 48
  },
  {
    "id": 2682,
    "name": "RAS EL OUED",
    "latitude": "35.9445677",
    "longitude": "5.0319396",
    "wilaya_id": 34
  },
  {
    "id": 2683,
    "name": "TIZI OUZOU",
    "latitude": "36.7137843",
    "longitude": "4.0493919",
    "wilaya_id": 15
  },
  {
    "id": 2684,
    "name": "BENACEUR",
    "latitude": "33.1105213",
    "longitude": "6.4421107",
    "wilaya_id": 55
  },
  {
    "id": 2685,
    "name": "BIRTOUTA",
    "latitude": "36.6449884",
    "longitude": "2.9985533",
    "wilaya_id": 16
  },
  {
    "id": 2686,
    "name": "SIDI HOSNI",
    "latitude": "35.5288935",
    "longitude": "1.5065668",
    "wilaya_id": 14
  },
  {
    "id": 2687,
    "name": "TENES",
    "latitude": "36.5080818",
    "longitude": "1.3078072",
    "wilaya_id": 2
  },
  {
    "id": 2688,
    "name": "ZERALDA",
    "latitude": "36.7120392",
    "longitude": "2.8407894",
    "wilaya_id": 16
  },
  {
    "id": 2689,
    "name": "BORDJ EL EMIR ABDELKADER",
    "latitude": "35.8222005",
    "longitude": "2.23692",
    "wilaya_id": 38
  },
  {
    "id": 2690,
    "name": "HASSI EL GHELLA",
    "latitude": "35.4548282",
    "longitude": "-1.0546776",
    "wilaya_id": 46
  },
  {
    "id": 2691,
    "name": "KOUBA",
    "latitude": "36.7323557",
    "longitude": "3.0874783",
    "wilaya_id": 16
  },
  {
    "id": 2692,
    "name": "MAGHNIA",
    "latitude": "34.8498681",
    "longitude": "-1.7296796",
    "wilaya_id": 13
  },
  {
    "id": 2693,
    "name": "EL KHROUB",
    "latitude": "36.2603681",
    "longitude": "6.6970014",
    "wilaya_id": 25
  },
  {
    "id": 2694,
    "name": "YABOUS",
    "latitude": "35.407649",
    "longitude": "6.6416748",
    "wilaya_id": 40
  },
  {
    "id": 2695,
    "name": "EL MILIA",
    "latitude": "36.7514104",
    "longitude": "6.2744614",
    "wilaya_id": 18
  },
  {
    "id": 2696,
    "name": "SEMAOUNE",
    "latitude": "36.5926863",
    "longitude": "4.5833036",
    "wilaya_id": 6
  },
  {
    "id": 2697,
    "name": "TEBESSA",
    "latitude": "35.4035956",
    "longitude": "8.1212322",
    "wilaya_id": 12
  },
  {
    "id": 2698,
    "name": "BARIKA",
    "latitude": "35.3846699",
    "longitude": "5.3702215",
    "wilaya_id": 5
  },
  {
    "id": 2699,
    "name": "MSILA",
    "latitude": "35.7087553",
    "longitude": "4.5371552",
    "wilaya_id": 28
  },
  {
    "id": 2700,
    "name": "EL HADAIEK",
    "latitude": "36.8252292",
    "longitude": "6.8890251",
    "wilaya_id": 21
  },
  {
    "id": 2701,
    "name": "NEKMARIA",
    "latitude": "36.1788972",
    "longitude": "0.6295316",
    "wilaya_id": 27
  },
  {
    "id": 2702,
    "name": "HELIOPOLIS",
    "latitude": "36.5306233",
    "longitude": "7.4348224",
    "wilaya_id": 24
  },
  {
    "id": 2703,
    "name": "DJELFA",
    "latitude": "34.671359",
    "longitude": "3.254037",
    "wilaya_id": 17
  },
  {
    "id": 2704,
    "name": "EL ADJIBA",
    "latitude": "36.3293456",
    "longitude": "4.1586858",
    "wilaya_id": 10
  },
  {
    "id": 2705,
    "name": "DOUERA",
    "latitude": "36.6694089",
    "longitude": "2.9421031",
    "wilaya_id": 16
  },
  {
    "id": 2706,
    "name": "EL HASSASNA",
    "latitude": "34.7513368",
    "longitude": "0.3396981",
    "wilaya_id": 20
  },
  {
    "id": 2707,
    "name": "SOUGUEUR",
    "latitude": "35.1856739",
    "longitude": "1.4960929",
    "wilaya_id": 14
  },
  {
    "id": 2708,
    "name": "AIN SMARA",
    "latitude": "36.266467",
    "longitude": "6.4969576",
    "wilaya_id": 25
  },
  {
    "id": 2709,
    "name": "BITAM",
    "latitude": "35.3077781",
    "longitude": "5.3740815",
    "wilaya_id": 5
  },
  {
    "id": 2710,
    "name": "CHEMORA",
    "latitude": "35.6298861",
    "longitude": "6.6056111",
    "wilaya_id": 5
  },
  {
    "id": 2711,
    "name": "OUM EL BOUAGHI",
    "latitude": "35.8687758",
    "longitude": "7.1150645",
    "wilaya_id": 4
  },
  {
    "id": 2712,
    "name": "OULED ABBES",
    "latitude": "36.2147686",
    "longitude": "1.4860684",
    "wilaya_id": 2
  },
  {
    "id": 2713,
    "name": "BOUSAADA",
    "latitude": "35.2133123",
    "longitude": "4.1809702",
    "wilaya_id": 28
  },
  {
    "id": 2714,
    "name": "SEDDOUK",
    "latitude": "36.5472337",
    "longitude": "4.6894642",
    "wilaya_id": 6
  },
  {
    "id": 2715,
    "name": "BOUGAA",
    "latitude": "36.3322264",
    "longitude": "5.0895897",
    "wilaya_id": 19
  },
  {
    "id": 2716,
    "name": "DELY BRAHIM",
    "latitude": "36.7516098",
    "longitude": "2.9825732",
    "wilaya_id": 16
  },
  {
    "id": 2717,
    "name": "AIN TAYA",
    "latitude": "36.7912902",
    "longitude": "3.2926194",
    "wilaya_id": 16
  },
  {
    "id": 2718,
    "name": "LARDJEM",
    "latitude": "35.7480295",
    "longitude": "1.5480772",
    "wilaya_id": 38
  },
  {
    "id": 2719,
    "name": "BEJAIA",
    "latitude": "36.7511783",
    "longitude": "5.0643687",
    "wilaya_id": 6
  },
  {
    "id": 2720,
    "name": "THENIA",
    "latitude": "36.724986",
    "longitude": "3.556935",
    "wilaya_id": 35
  },
  {
    "id": 2721,
    "name": "IGLI",
    "latitude": "30.4528493",
    "longitude": "-2.2908264",
    "wilaya_id": 52
  },
  {
    "id": 2722,
    "name": "BIRINE",
    "latitude": "35.6337386",
    "longitude": "3.2244016",
    "wilaya_id": 17
  },
  {
    "id": 2723,
    "name": "SIDI CHAMI",
    "latitude": "35.6579939",
    "longitude": "-0.5220152",
    "wilaya_id": 31
  },
  {
    "id": 2724,
    "name": "MASCARA",
    "latitude": "35.394081",
    "longitude": "0.1379568",
    "wilaya_id": 29
  },
  {
    "id": 2725,
    "name": "HUSSEIN DEY",
    "latitude": "36.7429388",
    "longitude": "3.094027",
    "wilaya_id": 16
  },
  {
    "id": 2726,
    "name": "MOSTAGANEM",
    "latitude": "35.928808",
    "longitude": "0.089978",
    "wilaya_id": 27
  },
  {
    "id": 2727,
    "name": "OULED DERRADJ",
    "latitude": "35.6721703",
    "longitude": "4.7876916",
    "wilaya_id": 28
  },
  {
    "id": 2728,
    "name": "OULED KHALED",
    "latitude": "34.9220728",
    "longitude": "0.1765338",
    "wilaya_id": 20
  },
  {
    "id": 2729,
    "name": "KHENCHELA",
    "latitude": "35.430154",
    "longitude": "7.145711",
    "wilaya_id": 40
  },
  {
    "id": 2730,
    "name": "MEDEA",
    "latitude": "36.265344",
    "longitude": "2.766957",
    "wilaya_id": 26
  },
  {
    "id": 2731,
    "name": "ANNABA",
    "latitude": "36.8982165",
    "longitude": "7.7549272",
    "wilaya_id": 23
  },
  {
    "id": 2732,
    "name": "HAIZER",
    "latitude": "36.3979925",
    "longitude": "3.9994448",
    "wilaya_id": 10
  },
  {
    "id": 2733,
    "name": "AIN BEIDA",
    "latitude": "35.7952839",
    "longitude": "7.3894346",
    "wilaya_id": 4
  },
  {
    "id": 2734,
    "name": "OUED CHEHAM",
    "latitude": "36.3526366",
    "longitude": "7.7909725",
    "wilaya_id": 24
  },
  {
    "id": 2735,
    "name": "AIN EL HADJEL",
    "latitude": "35.6179388",
    "longitude": "3.8654197",
    "wilaya_id": 28
  },
  {
    "id": 2736,
    "name": "TIGHENNIF",
    "latitude": "35.4143144",
    "longitude": "0.3292328",
    "wilaya_id": 29
  },
  {
    "id": 2737,
    "name": "SIDI FREDJ",
    "latitude": "36.1530958",
    "longitude": "8.1952696",
    "wilaya_id": 41
  },
  {
    "id": 2738,
    "name": "AHMER EL AIN",
    "latitude": "36.5012961",
    "longitude": "2.5716532",
    "wilaya_id": 42
  },
  {
    "id": 2739,
    "name": "SIG",
    "latitude": "35.5305119",
    "longitude": "-0.1906822",
    "wilaya_id": 29
  },
  {
    "id": 2740,
    "name": "TIARET",
    "latitude": "35.3661448",
    "longitude": "1.3194687",
    "wilaya_id": 14
  },
  {
    "id": 2741,
    "name": "KHEMIS EL KHECHNA",
    "latitude": "36.6505384",
    "longitude": "3.3317211",
    "wilaya_id": 35
  },
  {
    "id": 2742,
    "name": "IBN ZIAD",
    "latitude": "36.3829267",
    "longitude": "6.4720589",
    "wilaya_id": 25
  },
  {
    "id": 2743,
    "name": "AIN-DEFLA",
    "latitude": "36.2657178",
    "longitude": "1.9701347",
    "wilaya_id": 44
  },
  {
    "id": 2744,
    "name": "HADJOUT",
    "latitude": "36.5121198",
    "longitude": "2.4142888",
    "wilaya_id": 42
  },
  {
    "id": 2745,
    "name": "TLEMCEN",
    "latitude": "34.881789",
    "longitude": "-1.316699",
    "wilaya_id": 13
  },
  {
    "id": 2746,
    "name": "KHELIL",
    "latitude": "36.2362029",
    "longitude": "5.0157162",
    "wilaya_id": 34
  },
  {
    "id": 2747,
    "name": "EL FEDJOUDJ",
    "latitude": "36.5042115",
    "longitude": "7.4013726",
    "wilaya_id": 24
  },
  {
    "id": 2748,
    "name": "ECHATT",
    "latitude": "36.8303087",
    "longitude": "7.8727514",
    "wilaya_id": 36
  },
  {
    "id": 2749,
    "name": "NAAMA",
    "latitude": "33.2647342",
    "longitude": "-0.3110393",
    "wilaya_id": 45
  },
  {
    "id": 2750,
    "name": "EL MALAH",
    "latitude": "35.3899817",
    "longitude": "-1.0959775",
    "wilaya_id": 46
  },
  {
    "id": 2751,
    "name": "EL AMRIA",
    "latitude": "35.5248267",
    "longitude": "-1.0145245",
    "wilaya_id": 46
  },
  {
    "id": 2752,
    "name": "BORDJ BOU ARRERIDJ",
    "latitude": "36.0741121",
    "longitude": "4.7613476",
    "wilaya_id": 34
  },
  {
    "id": 2753,
    "name": "HAMMEDI",
    "latitude": "36.6800253",
    "longitude": "3.2596049",
    "wilaya_id": 35
  },
  {
    "id": 2754,
    "name": "SKIKDA",
    "latitude": "36.8801317",
    "longitude": "6.9077363",
    "wilaya_id": 21
  },
  {
    "id": 2755,
    "name": "EL-TARF",
    "latitude": "36.7667186",
    "longitude": "8.3169418",
    "wilaya_id": 36
  },
  {
    "id": 2756,
    "name": "AIN BOUCIF",
    "latitude": "35.8354145",
    "longitude": "3.1577821",
    "wilaya_id": 26
  },
  {
    "id": 2757,
    "name": "BLIDA",
    "latitude": "36.4705658",
    "longitude": "2.8274937",
    "wilaya_id": 9
  },
  {
    "id": 2758,
    "name": "AIN EL IBEL",
    "latitude": "34.3550616",
    "longitude": "3.2238301",
    "wilaya_id": 17
  },
  {
    "id": 2759,
    "name": "BERROUAGHIA",
    "latitude": "36.1352805",
    "longitude": "2.9172738",
    "wilaya_id": 26
  },
  {
    "id": 2760,
    "name": "OULED FAYET",
    "latitude": "36.7355249",
    "longitude": "2.9509064",
    "wilaya_id": 16
  },
  {
    "id": 2761,
    "name": "OUED SMAR",
    "latitude": "36.7044199",
    "longitude": "3.1681561",
    "wilaya_id": 16
  },
  {
    "id": 2762,
    "name": "TISSEMSILT",
    "latitude": "35.604813",
    "longitude": "1.810476",
    "wilaya_id": 38
  },
  {
    "id": 2763,
    "name": "FRENDA",
    "latitude": "35.0655965",
    "longitude": "1.0566092",
    "wilaya_id": 14
  },
  {
    "id": 2764,
    "name": "CONSTANTINE",
    "latitude": "36.3641642",
    "longitude": "6.6084281",
    "wilaya_id": 25
  },
  {
    "id": 2765,
    "name": "BIR CHOUHADA",
    "latitude": "35.9007352",
    "longitude": "6.2454458",
    "wilaya_id": 4
  },
  {
    "id": 2766,
    "name": "TIPAZA",
    "latitude": "36.5918179",
    "longitude": "2.4482509",
    "wilaya_id": 42
  },
  {
    "id": 2767,
    "name": "MLILI",
    "latitude": "34.5760922",
    "longitude": "5.6243246",
    "wilaya_id": 7
  },
  {
    "id": 2768,
    "name": "MAHELMA",
    "latitude": "36.6823629",
    "longitude": "2.87765",
    "wilaya_id": 16
  },
  {
    "id": 2769,
    "name": "TABLAT",
    "latitude": "36.4127653",
    "longitude": "3.3097893",
    "wilaya_id": 26
  },
  {
    "id": 2770,
    "name": "MECHRIA",
    "latitude": "33.5428415",
    "longitude": "-0.2750524",
    "wilaya_id": 45
  },
  {
    "id": 2771,
    "name": "CHELLALAT EL ADHAOURA",
    "latitude": "35.9396178",
    "longitude": "3.4140092",
    "wilaya_id": 26
  },
  {
    "id": 2772,
    "name": "EL OURICIA",
    "latitude": "36.2837674",
    "longitude": "5.4095661",
    "wilaya_id": 19
  },
  {
    "id": 2773,
    "name": "BOLOGHINE IBN ZIRI",
    "latitude": "36.8099201",
    "longitude": "2.9788282",
    "wilaya_id": 16
  },
  {
    "id": 2774,
    "name": "BORDJ EL BAHRI",
    "latitude": "36.7906241",
    "longitude": "3.2501614",
    "wilaya_id": 16
  },
  {
    "id": 2775,
    "name": "SIDI ALI",
    "latitude": "36.0997945",
    "longitude": "0.4206226",
    "wilaya_id": 27
  },
  {
    "id": 2776,
    "name": "HASSI BAHBAH",
    "latitude": "35.0747536",
    "longitude": "3.0270488",
    "wilaya_id": 17
  },
  {
    "id": 2777,
    "name": "BOUHADJAR",
    "latitude": "36.5034174",
    "longitude": "8.1060862",
    "wilaya_id": 36
  },
  {
    "id": 2778,
    "name": "BORDJ GHDIR",
    "latitude": "35.8991893",
    "longitude": "4.899182",
    "wilaya_id": 34
  },
  {
    "id": 2779,
    "name": "TSABIT",
    "latitude": "28.3509683",
    "longitude": "-0.2161001",
    "wilaya_id": 1
  },
  {
    "id": 2780,
    "name": "AIN TURK",
    "latitude": "35.7400353",
    "longitude": "-0.7539496",
    "wilaya_id": 31
  },
  {
    "id": 2781,
    "name": "GHASSIRA",
    "latitude": "35.0970768",
    "longitude": "6.2228071",
    "wilaya_id": 5
  },
  {
    "id": 2782,
    "name": "BABA HASSEN",
    "latitude": "36.6946975",
    "longitude": "2.9735467",
    "wilaya_id": 16
  },
  {
    "id": 2783,
    "name": "GUELAAT BOUSBAA",
    "latitude": "36.549069",
    "longitude": "7.4894268",
    "wilaya_id": 24
  },
  {
    "id": 2784,
    "name": "BATNA",
    "latitude": "35.5548235",
    "longitude": "6.1768526",
    "wilaya_id": 5
  },
  {
    "id": 2785,
    "name": "JIJEL",
    "latitude": "36.8167305",
    "longitude": "5.771494",
    "wilaya_id": 18
  },
  {
    "id": 2786,
    "name": "GUELMA",
    "latitude": "36.465084",
    "longitude": "7.430647",
    "wilaya_id": 24
  },
  {
    "id": 2787,
    "name": "ORAN",
    "latitude": "35.7044415",
    "longitude": "-0.6502981",
    "wilaya_id": 31
  },
  {
    "id": 2788,
    "name": "MILIANA",
    "latitude": "36.3047698",
    "longitude": "2.226821",
    "wilaya_id": 44
  },
  {
    "id": 2789,
    "name": "BAGHLIA",
    "latitude": "36.7959552",
    "longitude": "3.8675211",
    "wilaya_id": 35
  },
  {
    "id": 2790,
    "name": "OUM DROU",
    "latitude": "36.1966757",
    "longitude": "1.3913824",
    "wilaya_id": 2
  },
  {
    "id": 2791,
    "name": "BORDJ EL KIFFAN",
    "latitude": "36.747273",
    "longitude": "3.1908953",
    "wilaya_id": 16
  },
  {
    "id": 2792,
    "name": "HASSI BEN OKBA",
    "latitude": "35.726419",
    "longitude": "-0.4671047",
    "wilaya_id": 31
  },
  {
    "id": 2793,
    "name": "AIN KERCHA",
    "latitude": "35.9233662",
    "longitude": "6.7022898",
    "wilaya_id": 4
  },
  {
    "id": 2794,
    "name": "BAB EL ASSA",
    "latitude": "34.9661057",
    "longitude": "-2.0317999",
    "wilaya_id": 13
  },
  {
    "id": 2795,
    "name": "AIN BABOUCHE",
    "latitude": "35.9806479",
    "longitude": "7.1591673",
    "wilaya_id": 4
  },
  {
    "id": 2796,
    "name": "REGHAIA",
    "latitude": "36.7387813",
    "longitude": "3.3421179",
    "wilaya_id": 16
  },
  {
    "id": 2797,
    "name": "EL BAYADH",
    "latitude": "33.684319",
    "longitude": "1.0182453",
    "wilaya_id": 32
  },
  {
    "id": 2798,
    "name": "EL KALA",
    "latitude": "36.8961359",
    "longitude": "8.4430673",
    "wilaya_id": 36
  },
  {
    "id": 2799,
    "name": "SENDJAS",
    "latitude": "36.0396655",
    "longitude": "1.4552069",
    "wilaya_id": 2
  },
  {
    "id": 2800,
    "name": "OUED EL ANEB",
    "latitude": "36.9345945",
    "longitude": "7.5212403",
    "wilaya_id": 23
  },
  {
    "id": 2801,
    "name": "OUED ESSALEM",
    "latitude": "35.5798979",
    "longitude": "0.9252497",
    "wilaya_id": 48
  },
  {
    "id": 2802,
    "name": "ES SENIA",
    "latitude": "35.6500999",
    "longitude": "-0.6241804",
    "wilaya_id": 31
  },
  {
    "id": 2803,
    "name": "SIDI LAHCENE",
    "latitude": "35.0591",
    "longitude": "-0.6223",
    "wilaya_id": 22
  },
  {
    "id": 2804,
    "name": "BEN FREHA",
    "latitude": "35.6937209",
    "longitude": "-0.4186546",
    "wilaya_id": 31
  },
  {
    "id": 2805,
    "name": "BIR MOURAD RAIS",
    "latitude": "36.7393938",
    "longitude": "3.0500748",
    "wilaya_id": 16
  },
  {
    "id": 2806,
    "name": "SOUK-AHRAS",
    "latitude": "36.282865",
    "longitude": "7.9537896",
    "wilaya_id": 41
  },
  {
    "id": 2807,
    "name": "AZEFFOUN",
    "latitude": "36.8930725",
    "longitude": "4.4203917",
    "wilaya_id": 15
  },
  {
    "id": 2808,
    "name": "BOUROUBA",
    "latitude": "36.7138232",
    "longitude": "3.1125789",
    "wilaya_id": 16
  },
  {
    "id": 2809,
    "name": "SETIF",
    "latitude": "36.1893494",
    "longitude": "5.4046876",
    "wilaya_id": 19
  },
  {
    "id": 2810,
    "name": "RAIS HAMIDOU",
    "latitude": "36.8174128",
    "longitude": "3.0114701",
    "wilaya_id": 16
  },
  {
    "id": 2811,
    "name": "BIR KHADEM",
    "latitude": "36.6837401",
    "longitude": "3.0651964",
    "wilaya_id": 16
  },
  {
    "id": 2812,
    "name": "KSAR EL BOUKHARI",
    "latitude": "35.8758381",
    "longitude": "2.7484133",
    "wilaya_id": 26
  },
  {
    "id": 2813,
    "name": "SEDRATA",
    "latitude": "36.1356466",
    "longitude": "7.53412",
    "wilaya_id": 41
  },
  {
    "id": 2814,
    "name": "EL AFFROUN",
    "latitude": "36.46975",
    "longitude": "2.6267421",
    "wilaya_id": 9
  },
  {
    "id": 2815,
    "name": "KSAR EL ABTAL",
    "latitude": "35.9737047",
    "longitude": "5.2890497",
    "wilaya_id": 19
  },
  {
    "id": 2816,
    "name": "BISKRA",
    "latitude": "34.8508816",
    "longitude": "5.729074",
    "wilaya_id": 7
  },
  {
    "id": 2817,
    "name": "SAOULA",
    "latitude": "36.7027016",
    "longitude": "3.0238994",
    "wilaya_id": 16
  },
  {
    "id": 2818,
    "name": "OUARGLA",
    "latitude": "31.9444998",
    "longitude": "5.3217813",
    "wilaya_id": 30
  },
  {
    "id": 2819,
    "name": "AIN OULMANE",
    "latitude": "35.9231689",
    "longitude": "5.2959232",
    "wilaya_id": 19
  },
  {
    "id": 2820,
    "name": "BENI ABBES",
    "latitude": "30.1317426",
    "longitude": "-2.169031",
    "wilaya_id": 52
  },
  {
    "id": 2821,
    "name": "AIN KHADRA",
    "latitude": "35.5452659",
    "longitude": "4.9354504",
    "wilaya_id": 28
  },
  {
    "id": 2822,
    "name": "BAGHAI",
    "latitude": "35.5232847",
    "longitude": "7.1140725",
    "wilaya_id": 40
  },
  {
    "id": 2823,
    "name": "EL HADJAR",
    "latitude": "36.77505",
    "longitude": "7.6770911",
    "wilaya_id": 23
  },
  {
    "id": 2824,
    "name": "OUED FODDA",
    "latitude": "36.185966",
    "longitude": "1.5347489",
    "wilaya_id": 2
  },
  {
    "id": 2825,
    "name": "EULMA",
    "latitude": "36.7397345",
    "longitude": "7.4629454",
    "wilaya_id": 23
  },
  {
    "id": 2826,
    "name": "TOLGA",
    "latitude": "34.73212",
    "longitude": "5.3830752",
    "wilaya_id": 7
  },
  {
    "id": 2827,
    "name": "GHARDAIA",
    "latitude": "32.485855",
    "longitude": "3.677104",
    "wilaya_id": 47
  },
  {
    "id": 2828,
    "name": "HASSI MESSAOUD",
    "latitude": "31.6957444",
    "longitude": "6.0604297",
    "wilaya_id": 30
  },
  {
    "id": 2829,
    "name": "BECHAR",
    "latitude": "31.616312",
    "longitude": "-2.21841",
    "wilaya_id": 8
  },
  {
    "id": 2830,
    "name": "FERDJIOUA",
    "latitude": "36.4073812",
    "longitude": "5.9419603",
    "wilaya_id": 43
  },
  {
    "id": 2831,
    "name": "MEURAD",
    "latitude": "36.4763774",
    "longitude": "2.4272954",
    "wilaya_id": 42
  },
  {
    "id": 2832,
    "name": "AIN KERMES",
    "latitude": "34.9288006",
    "longitude": "1.07039",
    "wilaya_id": 14
  },
  {
    "id": 2833,
    "name": "BIR EL DJIR",
    "latitude": "35.719874",
    "longitude": "-0.5675118",
    "wilaya_id": 31
  },
  {
    "id": 2834,
    "name": "BARAKI",
    "latitude": "36.669792",
    "longitude": "3.1001751",
    "wilaya_id": 16
  },
  {
    "id": 2835,
    "name": "SIDI BEN ADDA",
    "latitude": "35.3042768",
    "longitude": "-1.1815248",
    "wilaya_id": 46
  },
  {
    "id": 2836,
    "name": "SIRAT",
    "latitude": "35.731748",
    "longitude": "0.172439",
    "wilaya_id": 27
  },
  {
    "id": 2837,
    "name": "EL AMIRIA",
    "latitude": "36.0718842",
    "longitude": "6.905992",
    "wilaya_id": 4
  },
  {
    "id": 2838,
    "name": "ALGER",
    "latitude": "36.7729333",
    "longitude": "3.0588445",
    "wilaya_id": 16
  },
  {
    "id": 2839,
    "name": "EMDJEZ EDCHICH",
    "latitude": "36.7051396",
    "longitude": "6.8043312",
    "wilaya_id": 21
  },
  {
    "id": 2840,
    "name": "TOUGGOURT",
    "latitude": "33.1048574",
    "longitude": "6.0667276",
    "wilaya_id": 55
  },
  {
    "id": 2841,
    "name": "SAIDA",
    "latitude": "34.8302067",
    "longitude": "0.1502692",
    "wilaya_id": 20
  },
  {
    "id": 2842,
    "name": "DJAMAA",
    "latitude": "36.7841312",
    "longitude": "3.0595361",
    "wilaya_id": 39
  },
  {
    "id": 2843,
    "name": "RELIZANE",
    "latitude": "35.7381193",
    "longitude": "0.5547673",
    "wilaya_id": 48
  },
  {
    "id": 2844,
    "name": "TIMGAD",
    "latitude": "35.4836328",
    "longitude": "6.4668121",
    "wilaya_id": 5
  },
  {
    "id": 2845,
    "name": "OULED BEN ABDELKADER",
    "latitude": "36.0238897",
    "longitude": "1.2761855",
    "wilaya_id": 2
  },
  {
    "id": 2846,
    "name": "BENI MERED",
    "latitude": "36.523526",
    "longitude": "2.8616102",
    "wilaya_id": 9
  },
  {
    "id": 2847,
    "name": "EL ATTAF",
    "latitude": "36.2244328",
    "longitude": "1.6725159",
    "wilaya_id": 44
  },
  {
    "id": 2848,
    "name": "BOGHAR",
    "latitude": "35.910616",
    "longitude": "2.7173772",
    "wilaya_id": 26
  },
  {
    "id": 2849,
    "name": "ILOULA OUMALOU",
    "latitude": "36.5649995",
    "longitude": "4.4487366",
    "wilaya_id": 15
  },
  {
    "id": 2850,
    "name": "EL AZIZIA",
    "latitude": "36.316014",
    "longitude": "3.4915483",
    "wilaya_id": 26
  },
  {
    "id": 2851,
    "name": "OUED SEGUEN",
    "latitude": "36.1811194",
    "longitude": "6.3883093",
    "wilaya_id": 43
  },
  {
    "id": 2852,
    "name": "TALA HAMZA",
    "latitude": "36.7029253",
    "longitude": "5.0394177",
    "wilaya_id": 6
  },
  {
    "id": 2853,
    "name": "LAGHOUAT",
    "latitude": "33.8063451",
    "longitude": "2.8802635",
    "wilaya_id": 3
  },
  {
    "id": 2854,
    "name": "AIN LALOUI",
    "latitude": "36.3208019",
    "longitude": "3.7485441",
    "wilaya_id": 10
  },
  {
    "id": 2855,
    "name": "OUED TAGA",
    "latitude": "35.4323373",
    "longitude": "6.4146079",
    "wilaya_id": 5
  },
  {
    "id": 2856,
    "name": "EL MATMAR",
    "latitude": "35.7309261",
    "longitude": "0.4611475",
    "wilaya_id": 48
  },
  {
    "id": 2857,
    "name": "HAMMAM BOUGHRARA",
    "latitude": "34.8936813",
    "longitude": "-1.6382574",
    "wilaya_id": 13
  },
  {
    "id": 2858,
    "name": "BOUDOUAOU",
    "latitude": "36.727203",
    "longitude": "3.408382",
    "wilaya_id": 35
  },
  {
    "id": 2859,
    "name": "BOUATI MAHMOUD",
    "latitude": "36.6088533",
    "longitude": "7.3480243",
    "wilaya_id": 24
  },
  {
    "id": 2860,
    "name": "TKOUT",
    "latitude": "35.1403816",
    "longitude": "6.3085503",
    "wilaya_id": 5
  },
  {
    "id": 2861,
    "name": "CORSO",
    "latitude": "36.7547423",
    "longitude": "3.4433833",
    "wilaya_id": 35
  },
  {
    "id": 2862,
    "name": "BOUCHRAHIL",
    "latitude": "36.274231",
    "longitude": "3.19346",
    "wilaya_id": 26
  },
  {
    "id": 2863,
    "name": "EL BOUNI",
    "latitude": "36.8548275",
    "longitude": "7.7413708",
    "wilaya_id": 23
  },
  {
    "id": 2864,
    "name": "BEB EZZOUAR",
    "latitude": "36.7249185",
    "longitude": "3.199012",
    "wilaya_id": 16
  },
  {
    "id": 2865,
    "name": "GUERROUAOU",
    "latitude": "36.5264595",
    "longitude": "2.886115",
    "wilaya_id": 9
  },
  {
    "id": 2866,
    "name": "TAZOULT",
    "latitude": "35.4860091",
    "longitude": "6.2536097",
    "wilaya_id": 5
  },
  {
    "id": 2867,
    "name": "OUED KORICHE",
    "latitude": "36.7857731",
    "longitude": "3.0438543",
    "wilaya_id": 16
  },
  {
    "id": 2868,
    "name": "STAOUELI",
    "latitude": "36.7532755",
    "longitude": "2.8881822",
    "wilaya_id": 16
  },
  {
    "id": 2869,
    "name": "THENIET EL HAD",
    "latitude": "35.8739691",
    "longitude": "2.0240828",
    "wilaya_id": 38
  },
  {
    "id": 2870,
    "name": "LARBAA",
    "latitude": "36.5650816",
    "longitude": "3.1540861",
    "wilaya_id": 9
  },
  {
    "id": 2871,
    "name": "OUED SLY",
    "latitude": "36.101565",
    "longitude": "1.1995738",
    "wilaya_id": 2
  },
  {
    "id": 2872,
    "name": "EL AOUINET",
    "latitude": "35.8628373",
    "longitude": "7.8888473",
    "wilaya_id": 12
  },
  {
    "id": 2873,
    "name": "DJIDIOUIA",
    "latitude": "35.9336653",
    "longitude": "0.8266434",
    "wilaya_id": 48
  },
  {
    "id": 2874,
    "name": "ICHEMOUL",
    "latitude": "35.3095106",
    "longitude": "6.5100105",
    "wilaya_id": 5
  },
  {
    "id": 2875,
    "name": "AIN KECHRA",
    "latitude": "36.801318",
    "longitude": "6.4610872",
    "wilaya_id": 21
  },
  {
    "id": 2876,
    "name": "KSAR CHELLALA",
    "latitude": "35.2143453",
    "longitude": "2.3129403",
    "wilaya_id": 14
  },
  {
    "id": 2877,
    "name": "BENI OULBANE",
    "latitude": "36.6439118",
    "longitude": "6.6281274",
    "wilaya_id": 21
  },
  {
    "id": 2878,
    "name": "CHETOUANE",
    "latitude": "34.9207591",
    "longitude": "-1.2910642",
    "wilaya_id": 13
  },
  {
    "id": 2879,
    "name": "HAMMA BOUZIANE",
    "latitude": "36.4248981",
    "longitude": "6.6008903",
    "wilaya_id": 25
  },
  {
    "id": 2880,
    "name": "YELLEL",
    "latitude": "35.7217352",
    "longitude": "0.3571077",
    "wilaya_id": 48
  },
  {
    "id": 2881,
    "name": "MENACEUR",
    "latitude": "36.5000414",
    "longitude": "2.2236309",
    "wilaya_id": 42
  },
  {
    "id": 2882,
    "name": "AIN TINE",
    "latitude": "36.4155335",
    "longitude": "6.3282212",
    "wilaya_id": 43
  },
  {
    "id": 2883,
    "name": "BIR EL ARCH",
    "latitude": "36.1303925",
    "longitude": "5.8392064",
    "wilaya_id": 19
  },
  {
    "id": 2884,
    "name": "CHAHNA",
    "latitude": "36.6586669",
    "longitude": "5.9442005",
    "wilaya_id": 18
  },
  {
    "id": 2885,
    "name": "EL OUED",
    "latitude": "33.3611531",
    "longitude": "6.8606693",
    "wilaya_id": 39
  },
  {
    "id": 2886,
    "name": "CASBAH",
    "latitude": "36.7844706",
    "longitude": "3.0578458",
    "wilaya_id": 16
  },
  {
    "id": 2887,
    "name": "BOUZGUEN",
    "latitude": "36.6179239",
    "longitude": "4.4761469",
    "wilaya_id": 15
  },
  {
    "id": 2888,
    "name": "MEZLOUG",
    "latitude": "36.1074201",
    "longitude": "5.3371932",
    "wilaya_id": 19
  },
  {
    "id": 2889,
    "name": "FRIKAT",
    "latitude": "36.5133532",
    "longitude": "3.8856598",
    "wilaya_id": 15
  },
  {
    "id": 2890,
    "name": "BENI OUARTILANE",
    "latitude": "36.4422585",
    "longitude": "4.8557425",
    "wilaya_id": 19
  },
  {
    "id": 2891,
    "name": "HOUARI BOUMEDIENE",
    "latitude": "36.4155048",
    "longitude": "7.2870821",
    "wilaya_id": 24
  },
  {
    "id": 2892,
    "name": "BOUKADIR",
    "latitude": "36.0650746",
    "longitude": "1.1278681",
    "wilaya_id": 2
  },
  {
    "id": 2893,
    "name": "AIN TURK",
    "latitude": "36.3932061",
    "longitude": "3.8246043",
    "wilaya_id": 10
  },
  {
    "id": 2894,
    "name": "ES SEBT",
    "latitude": "36.6195945",
    "longitude": "7.0645888",
    "wilaya_id": 21
  },
  {
    "id": 2895,
    "name": "CHLEF",
    "latitude": "36.164592",
    "longitude": "1.331499",
    "wilaya_id": 2
  },
  {
    "id": 2896,
    "name": "AOKAS",
    "latitude": "36.6376518",
    "longitude": "5.2453122",
    "wilaya_id": 6
  },
  {
    "id": 2897,
    "name": "AIN ARNAT",
    "latitude": "36.1849367",
    "longitude": "5.3144869",
    "wilaya_id": 19
  },
  {
    "id": 2898,
    "name": "MOHAMMADIA",
    "latitude": "35.5892003",
    "longitude": "0.0670398",
    "wilaya_id": 29
  },
  {
    "id": 2899,
    "name": "TIGZIRT",
    "latitude": "36.8926614",
    "longitude": "4.126179",
    "wilaya_id": 15
  },
  {
    "id": 2900,
    "name": "AIN EL ASSEL",
    "latitude": "36.7865309",
    "longitude": "8.3825736",
    "wilaya_id": 36
  },
  {
    "id": 2901,
    "name": "CHAABET EL HAM",
    "latitude": "35.3367018",
    "longitude": "-1.1020618",
    "wilaya_id": 46
  },
  {
    "id": 2902,
    "name": "EMIR ABDELKADER",
    "latitude": "36.7546904",
    "longitude": "5.8443228",
    "wilaya_id": 18
  },
  {
    "id": 2903,
    "name": "KENADSA",
    "latitude": "31.5545321",
    "longitude": "-2.432661",
    "wilaya_id": 8
  },
  {
    "id": 2904,
    "name": "DAR EL BEIDA",
    "latitude": "36.7149768",
    "longitude": "3.2094611",
    "wilaya_id": 16
  },
  {
    "id": 2905,
    "name": "BENI BACHIR",
    "latitude": "36.774669",
    "longitude": "6.9376557",
    "wilaya_id": 21
  },
  {
    "id": 2906,
    "name": "BEIDHA BORDJ",
    "latitude": "35.837695",
    "longitude": "5.6318487",
    "wilaya_id": 19
  },
  {
    "id": 2907,
    "name": "CHBAITA MOKHTAR",
    "latitude": "36.755843",
    "longitude": "7.7407291",
    "wilaya_id": 36
  },
  {
    "id": 2908,
    "name": "AIN SEFRA",
    "latitude": "32.7568151",
    "longitude": "-0.577859",
    "wilaya_id": 45
  },
  {
    "id": 2909,
    "name": "SIDI LAKHDAR",
    "latitude": "36.2656357",
    "longitude": "2.1617628",
    "wilaya_id": 44
  },
  {
    "id": 2910,
    "name": "SIDI AISSA",
    "latitude": "35.8838359",
    "longitude": "3.7803723",
    "wilaya_id": 28
  },
  {
    "id": 2911,
    "name": "BENI SLIMANE",
    "latitude": "36.230723",
    "longitude": "3.3104153",
    "wilaya_id": 26
  },
  {
    "id": 2912,
    "name": "SIDI DAOUD",
    "latitude": "36.8567267",
    "longitude": "3.8581586",
    "wilaya_id": 35
  },
  {
    "id": 2913,
    "name": "OULED YAICH",
    "latitude": "36.4970451",
    "longitude": "2.8610493",
    "wilaya_id": 9
  },
  {
    "id": 2914,
    "name": "TINDOUF",
    "latitude": "27.6718402",
    "longitude": "-8.1397297",
    "wilaya_id": 37
  },
  {
    "id": 2915,
    "name": "EL KARIMIA",
    "latitude": "36.1121742",
    "longitude": "1.5534446",
    "wilaya_id": 2
  },
  {
    "id": 2916,
    "name": "AMALOU",
    "latitude": "36.4774607",
    "longitude": "4.63266",
    "wilaya_id": 6
  },
  {
    "id": 2917,
    "name": "LAKHDARIA",
    "latitude": "36.5644827",
    "longitude": "3.5967523",
    "wilaya_id": 10
  },
  {
    "id": 2918,
    "name": "ABOU EL HASSEN",
    "latitude": "36.4145938",
    "longitude": "1.1938241",
    "wilaya_id": 2
  },
  {
    "id": 2919,
    "name": "EL MADANIA",
    "latitude": "36.7420067",
    "longitude": "3.0665715",
    "wilaya_id": 16
  },
  {
    "id": 2920,
    "name": "BOUIRA",
    "latitude": "36.3739012",
    "longitude": "3.9007007",
    "wilaya_id": 10
  },
  {
    "id": 2921,
    "name": "LABIODH MEDJADJA",
    "latitude": "36.2507309",
    "longitude": "1.3919112",
    "wilaya_id": 2
  },
  {
    "id": 2922,
    "name": "EL GUETTAR",
    "latitude": "36.0879043",
    "longitude": "0.8168474",
    "wilaya_id": 48
  },
  {
    "id": 2923,
    "name": "TAHER",
    "latitude": "36.7712912",
    "longitude": "5.897589",
    "wilaya_id": 18
  },
  {
    "id": 2924,
    "name": "OULED YAICH",
    "latitude": "35.8266939",
    "longitude": "0.9631855",
    "wilaya_id": 48
  },
  {
    "id": 2925,
    "name": "DJELIDA",
    "latitude": "36.2027341",
    "longitude": "2.0795157",
    "wilaya_id": 44
  },
  {
    "id": 2926,
    "name": "BENI DERGOUN",
    "latitude": "35.7933416",
    "longitude": "0.801238",
    "wilaya_id": 48
  },
  {
    "id": 2927,
    "name": "NEDROMA",
    "latitude": "35.0107602",
    "longitude": "-1.74805",
    "wilaya_id": 13
  },
  {
    "id": 2928,
    "name": "MAZOUNA",
    "latitude": "36.1262742",
    "longitude": "0.8801926",
    "wilaya_id": 48
  },
  {
    "id": 2929,
    "name": "TIMIZART",
    "latitude": "36.7978208",
    "longitude": "4.2461875",
    "wilaya_id": 15
  },
  {
    "id": 2930,
    "name": "MCHEDALLAH",
    "latitude": "36.361266",
    "longitude": "4.2707836",
    "wilaya_id": 10
  },
  {
    "id": 2931,
    "name": "EL BIAR",
    "latitude": "36.7688818",
    "longitude": "3.030651",
    "wilaya_id": 16
  },
  {
    "id": 2932,
    "name": "BENI MOUHLI",
    "latitude": "36.5132135",
    "longitude": "4.8940032",
    "wilaya_id": 19
  },
  {
    "id": 2933,
    "name": "KAIS",
    "latitude": "35.4956337",
    "longitude": "6.9235555",
    "wilaya_id": 40
  },
  {
    "id": 2934,
    "name": "AIN SOLTANE",
    "latitude": "36.2483226",
    "longitude": "2.2973227",
    "wilaya_id": 44
  },
  {
    "id": 2935,
    "name": "DOUAOUDA",
    "latitude": "36.6737396",
    "longitude": "2.7900902",
    "wilaya_id": 42
  },
  {
    "id": 2936,
    "name": "NEZLA",
    "latitude": "33.0960188",
    "longitude": "6.0630525",
    "wilaya_id": 55
  },
  {
    "id": 2937,
    "name": "BESBES",
    "latitude": "36.7008806",
    "longitude": "7.8454765",
    "wilaya_id": 36
  },
  {
    "id": 2938,
    "name": "CHERAGA",
    "latitude": "36.7669269",
    "longitude": "2.9602571",
    "wilaya_id": 16
  },
  {
    "id": 2939,
    "name": "EL IDRISSIA",
    "latitude": "34.4486677",
    "longitude": "2.5312873",
    "wilaya_id": 17
  },
  {
    "id": 2940,
    "name": "ADRAR",
    "latitude": "27.873203",
    "longitude": "-0.2876021",
    "wilaya_id": 1
  },
  {
    "id": 2941,
    "name": "METLILI",
    "latitude": "32.2605169",
    "longitude": "3.6259116",
    "wilaya_id": 47
  },
  {
    "id": 2942,
    "name": "CHETTIA",
    "latitude": "36.1929178",
    "longitude": "1.2491044",
    "wilaya_id": 2
  },
  {
    "id": 2943,
    "name": "SIGUS",
    "latitude": "36.1239401",
    "longitude": "6.7854947",
    "wilaya_id": 4
  },
  {
    "id": 2944,
    "name": "EL GHOMRI",
    "latitude": "35.6883106",
    "longitude": "0.2069806",
    "wilaya_id": 29
  },
  {
    "id": 2945,
    "name": "DJEBEL MESSAAD",
    "latitude": "34.9930304",
    "longitude": "4.0907504",
    "wilaya_id": 28
  },
  {
    "id": 2946,
    "name": "BAYADHA",
    "latitude": "33.3278311",
    "longitude": "6.8885733",
    "wilaya_id": 39
  },
  {
    "id": 2947,
    "name": "SI MUSTAPHA",
    "latitude": "36.7336375",
    "longitude": "3.6253479",
    "wilaya_id": 35
  },
  {
    "id": 2948,
    "name": "COLLO",
    "latitude": "37.0065806",
    "longitude": "6.5690345",
    "wilaya_id": 21
  },
  {
    "id": 2949,
    "name": "AIN EL MELH",
    "latitude": "34.8414309",
    "longitude": "4.1731521",
    "wilaya_id": 28
  },
  {
    "id": 2950,
    "name": "CHORFA",
    "latitude": "36.3596242",
    "longitude": "4.3236528",
    "wilaya_id": 10
  },
  {
    "id": 2951,
    "name": "AIT BOUADOU",
    "latitude": "36.5032098",
    "longitude": "4.0612545",
    "wilaya_id": 15
  },
  {
    "id": 2952,
    "name": "OULED SLAMA",
    "latitude": "36.5534582",
    "longitude": "3.1153628",
    "wilaya_id": 9
  },
  {
    "id": 2953,
    "name": "SOUK EL TENINE",
    "latitude": "36.5950832",
    "longitude": "4.007301",
    "wilaya_id": 15
  },
  {
    "id": 2954,
    "name": "GHASSOUL",
    "latitude": "33.4924106",
    "longitude": "1.2592332",
    "wilaya_id": 32
  },
  {
    "id": 2955,
    "name": "DIDOUCHE MOURAD",
    "latitude": "36.4446761",
    "longitude": "6.6330811",
    "wilaya_id": 25
  },
  {
    "id": 2956,
    "name": "AIN BENIAN",
    "latitude": "36.8033456",
    "longitude": "2.9216788",
    "wilaya_id": 16
  },
  {
    "id": 2957,
    "name": "HAD SAHARY",
    "latitude": "35.3506602",
    "longitude": "3.3640573",
    "wilaya_id": 17
  },
  {
    "id": 2958,
    "name": "REGUIBA",
    "latitude": "33.5653009",
    "longitude": "6.7114196",
    "wilaya_id": 39
  },
  {
    "id": 2959,
    "name": "OULED SABOR",
    "latitude": "36.1819425",
    "longitude": "5.5403857",
    "wilaya_id": 19
  },
  {
    "id": 2960,
    "name": "BOUGTOUB",
    "latitude": "34.0405202",
    "longitude": "0.087067",
    "wilaya_id": 32
  },
  {
    "id": 2961,
    "name": "AKBOU",
    "latitude": "36.4597538",
    "longitude": "4.5289243",
    "wilaya_id": 6
  },
  {
    "id": 2962,
    "name": "HASSI RMEL",
    "latitude": "32.9458855",
    "longitude": "3.273666",
    "wilaya_id": 3
  },
  {
    "id": 2963,
    "name": "EL MOURADIA",
    "latitude": "36.7473392",
    "longitude": "3.0506705",
    "wilaya_id": 16
  },
  {
    "id": 2964,
    "name": "EL KSEUR",
    "latitude": "36.6794351",
    "longitude": "4.8523757",
    "wilaya_id": 6
  },
  {
    "id": 2965,
    "name": "DRARIA",
    "latitude": "36.7137875",
    "longitude": "3.0015961",
    "wilaya_id": 16
  },
  {
    "id": 2966,
    "name": "SIDI MHAMED",
    "latitude": "36.7584001",
    "longitude": "3.0627161",
    "wilaya_id": 16
  },
  {
    "id": 2967,
    "name": "BOUDJELLIL",
    "latitude": "36.3498654",
    "longitude": "4.4141916",
    "wilaya_id": 6
  },
  {
    "id": 2968,
    "name": "DAR CHIOUKH",
    "latitude": "34.8972924",
    "longitude": "3.4897249",
    "wilaya_id": 17
  },
  {
    "id": 2969,
    "name": "BETHIOUA",
    "latitude": "35.805837",
    "longitude": "-0.267936",
    "wilaya_id": 31
  },
  {
    "id": 2970,
    "name": "AIN BESSAM",
    "latitude": "36.2929113",
    "longitude": "3.6735417",
    "wilaya_id": 10
  },
  {
    "id": 2971,
    "name": "ZIGHOUD YOUCEF",
    "latitude": "36.5292375",
    "longitude": "6.7336958",
    "wilaya_id": 25
  },
  {
    "id": 2972,
    "name": "GUELLAL",
    "latitude": "36.0339934",
    "longitude": "5.3387839",
    "wilaya_id": 19
  },
  {
    "id": 2973,
    "name": "ATH MANSOUR",
    "latitude": "36.3278259",
    "longitude": "4.3172601",
    "wilaya_id": 10
  },
  {
    "id": 2974,
    "name": "ROUACHED",
    "latitude": "36.4581588",
    "longitude": "6.0391589",
    "wilaya_id": 43
  },
  {
    "id": 2975,
    "name": "BENI AMRANE",
    "latitude": "36.6678481",
    "longitude": "3.5918611",
    "wilaya_id": 35
  },
  {
    "id": 2976,
    "name": "SOUR EL GHOZLANE",
    "latitude": "36.147376",
    "longitude": "3.691797",
    "wilaya_id": 10
  },
  {
    "id": 2977,
    "name": "SALAH BEY",
    "latitude": "35.8520786",
    "longitude": "5.2904883",
    "wilaya_id": 19
  },
  {
    "id": 2978,
    "name": "SABRA",
    "latitude": "34.8260248",
    "longitude": "-1.530335",
    "wilaya_id": 13
  },
  {
    "id": 2979,
    "name": "HASNAOUA",
    "latitude": "36.160523",
    "longitude": "4.825215",
    "wilaya_id": 34
  },
  {
    "id": 2980,
    "name": "MESSAAD",
    "latitude": "34.1540811",
    "longitude": "3.492231",
    "wilaya_id": 17
  },
  {
    "id": 2981,
    "name": "BOUCAID",
    "latitude": "35.8902865",
    "longitude": "1.6184584",
    "wilaya_id": 38
  },
  {
    "id": 2982,
    "name": "DRAA EL MIZAN",
    "latitude": "36.5350648",
    "longitude": "3.8380358",
    "wilaya_id": 15
  },
  {
    "id": 2983,
    "name": "OULED FARES",
    "latitude": "36.2303457",
    "longitude": "1.2084133",
    "wilaya_id": 2
  },
  {
    "id": 2984,
    "name": "ZAHANA",
    "latitude": "35.517616",
    "longitude": "-0.410225",
    "wilaya_id": 29
  },
  {
    "id": 2985,
    "name": "DAMOUS",
    "latitude": "36.5487437",
    "longitude": "1.7055525",
    "wilaya_id": 42
  },
  {
    "id": 2986,
    "name": "EL EULMA",
    "latitude": "36.1529057",
    "longitude": "5.6911588",
    "wilaya_id": 19
  },
  {
    "id": 2987,
    "name": "EL GAADA",
    "latitude": "35.4266234",
    "longitude": "-0.3129183",
    "wilaya_id": 29
  },
  {
    "id": 2988,
    "name": "SIDI KHELIFA",
    "latitude": "36.3635685",
    "longitude": "6.261707",
    "wilaya_id": 43
  },
  {
    "id": 2989,
    "name": "OULED BRAHIM",
    "latitude": "36.2437886",
    "longitude": "2.9350635",
    "wilaya_id": 26
  },
  {
    "id": 2990,
    "name": "LARBATACHE",
    "latitude": "36.6379144",
    "longitude": "3.3710566",
    "wilaya_id": 35
  },
  {
    "id": 2991,
    "name": "MILA",
    "latitude": "36.451941",
    "longitude": "6.262331",
    "wilaya_id": 43
  },
  {
    "id": 2992,
    "name": "AIN FERAH",
    "latitude": "35.382409",
    "longitude": "0.7830416",
    "wilaya_id": 29
  },
  {
    "id": 2993,
    "name": "AIN-TEMOUCHENT",
    "latitude": "35.3048421",
    "longitude": "-1.1457771",
    "wilaya_id": 46
  },
  {
    "id": 2994,
    "name": "AIN FAKROUN",
    "latitude": "35.9420187",
    "longitude": "6.8728223",
    "wilaya_id": 4
  },
  {
    "id": 2995,
    "name": "STIDIA",
    "latitude": "35.8329584",
    "longitude": "-0.0035725",
    "wilaya_id": 27
  },
  {
    "id": 2996,
    "name": "STITTEN",
    "latitude": "33.7563995",
    "longitude": "1.2241683",
    "wilaya_id": 32
  },
  {
    "id": 2997,
    "name": "SIDI MOUSSA",
    "latitude": "36.6047961",
    "longitude": "3.088782",
    "wilaya_id": 16
  },
  {
    "id": 2998,
    "name": "CHELGHOUM LAID",
    "latitude": "36.1605629",
    "longitude": "6.1673286",
    "wilaya_id": 43
  },
  {
    "id": 2999,
    "name": "AIN YAGOUT",
    "latitude": "35.7866324",
    "longitude": "6.418212",
    "wilaya_id": 5
  },
  {
    "id": 3000,
    "name": "BOUFATIS",
    "latitude": "35.6791406",
    "longitude": "-0.4117684",
    "wilaya_id": 31
  },
  {
    "id": 3001,
    "name": "OULED BOUGHALEM",
    "latitude": "36.2918819",
    "longitude": "0.6967613",
    "wilaya_id": 27
  },
  {
    "id": 3002,
    "name": "SIDI EMBAREK",
    "latitude": "36.1181276",
    "longitude": "4.9041488",
    "wilaya_id": 34
  },
  {
    "id": 3003,
    "name": "HAMADIA",
    "latitude": "35.4584077",
    "longitude": "1.8723935",
    "wilaya_id": 14
  },
  {
    "id": 3004,
    "name": "SIDI AKKACHA",
    "latitude": "36.4649578",
    "longitude": "1.3052519",
    "wilaya_id": 2
  },
  {
    "id": 3005,
    "name": "HENAYA",
    "latitude": "34.9203986",
    "longitude": "-1.3666038",
    "wilaya_id": 13
  },
  {
    "id": 3006,
    "name": "RAMDANE DJAMEL",
    "latitude": "36.7558331",
    "longitude": "6.9259068",
    "wilaya_id": 21
  },
  {
    "id": 3007,
    "name": "SIDI KADA",
    "latitude": "35.328545",
    "longitude": "0.3394322",
    "wilaya_id": 29
  },
  {
    "id": 3008,
    "name": "MANSOURAH",
    "latitude": "34.8733172",
    "longitude": "-1.3302647",
    "wilaya_id": 13
  },
  {
    "id": 3009,
    "name": "TIZI GHENIF",
    "latitude": "36.5872274",
    "longitude": "3.7742759",
    "wilaya_id": 15
  },
  {
    "id": 3010,
    "name": "CHIFFA",
    "latitude": "36.4622287",
    "longitude": "2.7409097",
    "wilaya_id": 9
  },
  {
    "id": 3011,
    "name": "BOUNOURA",
    "latitude": "32.4856037",
    "longitude": "3.7049786",
    "wilaya_id": 47
  },
  {
    "id": 3012,
    "name": "TOUDJA",
    "latitude": "36.7525317",
    "longitude": "4.8971215",
    "wilaya_id": 6
  },
  {
    "id": 3013,
    "name": "AIN CHERCHAR",
    "latitude": "36.732542",
    "longitude": "7.2218373",
    "wilaya_id": 21
  },
  {
    "id": 3014,
    "name": "LES EUCALYPTUS",
    "latitude": "36.6567143",
    "longitude": "3.1472616",
    "wilaya_id": 16
  },
  {
    "id": 3015,
    "name": "KERKERA",
    "latitude": "36.9304439",
    "longitude": "6.5842202",
    "wilaya_id": 21
  },
  {
    "id": 3016,
    "name": "BEN BADIS",
    "latitude": "36.3166261",
    "longitude": "6.8349785",
    "wilaya_id": 25
  },
  {
    "id": 3017,
    "name": "BOUTLELIS",
    "latitude": "35.5729399",
    "longitude": "-0.8998452",
    "wilaya_id": 31
  },
  {
    "id": 3018,
    "name": "AFIR",
    "latitude": "36.8423443",
    "longitude": "3.9871505",
    "wilaya_id": 35
  },
  {
    "id": 3019,
    "name": "AIN TEDLES",
    "latitude": "35.9990969",
    "longitude": "0.294879",
    "wilaya_id": 27
  },
  {
    "id": 3020,
    "name": "DREAN",
    "latitude": "36.6851201",
    "longitude": "7.7470888",
    "wilaya_id": 36
  },
  {
    "id": 3021,
    "name": "AIT SMAIL",
    "latitude": "36.5536461",
    "longitude": "5.2297301",
    "wilaya_id": 6
  },
  {
    "id": 3022,
    "name": "SOUAHLIA",
    "latitude": "35.0269936",
    "longitude": "-1.8970124",
    "wilaya_id": 13
  },
  {
    "id": 3023,
    "name": "TEXENNA",
    "latitude": "36.6605708",
    "longitude": "5.7909778",
    "wilaya_id": 18
  },
  {
    "id": 3024,
    "name": "ZMALET EMIR ABDELKADER",
    "latitude": "34.894606",
    "longitude": "2.3099441",
    "wilaya_id": 14
  },
  {
    "id": 3025,
    "name": "BOUMAHRA AHMED",
    "latitude": "36.4604068",
    "longitude": "7.5143095",
    "wilaya_id": 24
  },
  {
    "id": 3026,
    "name": "MAHDIA",
    "latitude": "35.4569852",
    "longitude": "1.741478",
    "wilaya_id": 14
  },
  {
    "id": 3027,
    "name": "TIMIMOUN",
    "latitude": "29.2605117",
    "longitude": "0.2285923",
    "wilaya_id": 49
  },
  {
    "id": 3028,
    "name": "ROUIBA",
    "latitude": "36.7364237",
    "longitude": "3.2826417",
    "wilaya_id": 16
  },
  {
    "id": 3029,
    "name": "GHRISS",
    "latitude": "35.2481745",
    "longitude": "0.1604511",
    "wilaya_id": 29
  },
  {
    "id": 3030,
    "name": "MEDIOUNA",
    "latitude": "36.1246927",
    "longitude": "0.7483582",
    "wilaya_id": 48
  },
  {
    "id": 3031,
    "name": "AZZABA",
    "latitude": "36.7388133",
    "longitude": "7.1062378",
    "wilaya_id": 21
  },
  {
    "id": 3032,
    "name": "BORDJ EMIR KHALED",
    "latitude": "36.1200332",
    "longitude": "2.2045088",
    "wilaya_id": 44
  },
  {
    "id": 3033,
    "name": "AIN MERANE",
    "latitude": "36.175626",
    "longitude": "0.9723668",
    "wilaya_id": 2
  },
  {
    "id": 3034,
    "name": "ENSIGHA",
    "latitude": "35.3960059",
    "longitude": "7.1427291",
    "wilaya_id": 40
  },
  {
    "id": 3035,
    "name": "HAMMA",
    "latitude": "35.6845243",
    "longitude": "5.3862787",
    "wilaya_id": 19
  },
  {
    "id": 3036,
    "name": "HADJADJ",
    "latitude": "36.0953239",
    "longitude": "0.3256437",
    "wilaya_id": 27
  },
  {
    "id": 3037,
    "name": "SIDI MEZGHICHE",
    "latitude": "36.7082508",
    "longitude": "6.7042844",
    "wilaya_id": 21
  },
  {
    "id": 3038,
    "name": "GDYEL",
    "latitude": "35.7824852",
    "longitude": "-0.4242038",
    "wilaya_id": 31
  },
  {
    "id": 3039,
    "name": "TAMACINE",
    "latitude": "33.0104035",
    "longitude": "6.012687",
    "wilaya_id": 55
  },
  {
    "id": 3040,
    "name": "BOUTALEB",
    "latitude": "35.6599645",
    "longitude": "5.3215529",
    "wilaya_id": 19
  },
  {
    "id": 3041,
    "name": "TEBESBEST",
    "latitude": "33.115308",
    "longitude": "6.0818339",
    "wilaya_id": 55
  },
  {
    "id": 3042,
    "name": "OULED SAID",
    "latitude": "29.4149964",
    "longitude": "0.2444383",
    "wilaya_id": 49
  },
  {
    "id": 3043,
    "name": "MEDRISSA",
    "latitude": "34.8924859",
    "longitude": "1.2458048",
    "wilaya_id": 14
  },
  {
    "id": 3044,
    "name": "BAINS ROMAINS",
    "latitude": "36.8137612",
    "longitude": "2.9712554",
    "wilaya_id": 16
  },
  {
    "id": 3045,
    "name": "TIZI RACHED",
    "latitude": "36.6789662",
    "longitude": "4.2086164",
    "wilaya_id": 15
  },
  {
    "id": 3046,
    "name": "BELKHEIR",
    "latitude": "36.4634182",
    "longitude": "7.4763788",
    "wilaya_id": 24
  },
  {
    "id": 3047,
    "name": "OUADHIA",
    "latitude": "36.555223",
    "longitude": "4.0867217",
    "wilaya_id": 15
  },
  {
    "id": 3048,
    "name": "OUAMRI",
    "latitude": "36.2317529",
    "longitude": "2.56547",
    "wilaya_id": 26
  },
  {
    "id": 3049,
    "name": "TASSALA EL MERDJA",
    "latitude": "36.6272776",
    "longitude": "2.9448383",
    "wilaya_id": 16
  },
  {
    "id": 3050,
    "name": "HAMADI KROUMA",
    "latitude": "36.8441177",
    "longitude": "6.929106",
    "wilaya_id": 21
  },
  {
    "id": 3051,
    "name": "AIN ABID",
    "latitude": "36.2489875",
    "longitude": "6.9419888",
    "wilaya_id": 25
  },
  {
    "id": 3052,
    "name": "OUED EL MA",
    "latitude": "35.6448731",
    "longitude": "5.9953423",
    "wilaya_id": 5
  },
  {
    "id": 3053,
    "name": "TADJENA",
    "latitude": "36.3347",
    "longitude": "1.117922",
    "wilaya_id": 2
  },
  {
    "id": 3054,
    "name": "SEDRAIA",
    "latitude": "36.2345179",
    "longitude": "3.520256",
    "wilaya_id": 26
  },
  {
    "id": 3055,
    "name": "AIN BOUZIANE",
    "latitude": "36.6043041",
    "longitude": "6.7323529",
    "wilaya_id": 21
  },
  {
    "id": 3056,
    "name": "GUEMAR",
    "latitude": "33.4916197",
    "longitude": "6.7977914",
    "wilaya_id": 39
  },
  {
    "id": 3057,
    "name": "ABADLA",
    "latitude": "31.0274839",
    "longitude": "-2.7104418",
    "wilaya_id": 8
  },
  {
    "id": 3058,
    "name": "DJEMAA BENI HABIBI",
    "latitude": "36.8010447",
    "longitude": "6.0932644",
    "wilaya_id": 18
  },
  {
    "id": 3059,
    "name": "ABI YOUCEF",
    "latitude": "36.5384746",
    "longitude": "4.3438612",
    "wilaya_id": 15
  },
  {
    "id": 3060,
    "name": "ACHAACHA",
    "latitude": "36.2445994",
    "longitude": "0.6355803",
    "wilaya_id": 27
  },
  {
    "id": 3061,
    "name": "AZAZGA",
    "latitude": "36.744738",
    "longitude": "4.3716399",
    "wilaya_id": 15
  },
  {
    "id": 3062,
    "name": "INZEGMIR",
    "latitude": "27.046289",
    "longitude": "-0.0918987",
    "wilaya_id": 1
  },
  {
    "id": 3063,
    "name": "EL FEIDH",
    "latitude": "34.5005929",
    "longitude": "6.469635",
    "wilaya_id": 7
  },
  {
    "id": 3064,
    "name": "MEROUANA",
    "latitude": "35.6320555",
    "longitude": "5.913138",
    "wilaya_id": 5
  },
  {
    "id": 3065,
    "name": "BENI OUARSOUS",
    "latitude": "35.091454",
    "longitude": "-1.5830375",
    "wilaya_id": 13
  },
  {
    "id": 3066,
    "name": "EL ACHOUR",
    "latitude": "36.7337798",
    "longitude": "2.9910761",
    "wilaya_id": 16
  },
  {
    "id": 3067,
    "name": "AIN EL HADID",
    "latitude": "35.0554796",
    "longitude": "0.8856345",
    "wilaya_id": 14
  },
  {
    "id": 3068,
    "name": "MEFTAH",
    "latitude": "36.620033",
    "longitude": "3.2229744",
    "wilaya_id": 9
  },
  {
    "id": 3069,
    "name": "TAOURA",
    "latitude": "36.167061",
    "longitude": "8.042039",
    "wilaya_id": 41
  },
  {
    "id": 3070,
    "name": "BOUTELDJA",
    "latitude": "36.7855823",
    "longitude": "8.1990268",
    "wilaya_id": 36
  },
  {
    "id": 3071,
    "name": "AIN KERMA",
    "latitude": "35.6434497",
    "longitude": "-0.9765427",
    "wilaya_id": 31
  },
  {
    "id": 3072,
    "name": "MERSA BEN MHIDI",
    "latitude": "35.0817992",
    "longitude": "-2.2043971",
    "wilaya_id": 13
  },
  {
    "id": 3073,
    "name": "TAMALAHT",
    "latitude": "35.7999236",
    "longitude": "1.6058392",
    "wilaya_id": 38
  },
  {
    "id": 3074,
    "name": "SAYADA",
    "latitude": "35.9334015",
    "longitude": "0.13593",
    "wilaya_id": 27
  },
  {
    "id": 3075,
    "name": "BIR MOKADEM",
    "latitude": "35.3704032",
    "longitude": "7.8085014",
    "wilaya_id": 12
  },
  {
    "id": 3076,
    "name": "SEBAINE",
    "latitude": "35.4589895",
    "longitude": "1.608022",
    "wilaya_id": 14
  },
  {
    "id": 3077,
    "name": "HASSI BOUNIF",
    "latitude": "35.6912811",
    "longitude": "-0.4979622",
    "wilaya_id": 31
  },
  {
    "id": 3078,
    "name": "AIN TOUILA",
    "latitude": "35.4793115",
    "longitude": "7.3748585",
    "wilaya_id": 40
  },
  {
    "id": 3079,
    "name": "SIDI AMAR",
    "latitude": "36.5424695",
    "longitude": "2.3059586",
    "wilaya_id": 42
  },
  {
    "id": 3080,
    "name": "BENI RACHED",
    "latitude": "36.2927757",
    "longitude": "1.5307566",
    "wilaya_id": 2
  },
  {
    "id": 3081,
    "name": "BOUZAREAH",
    "latitude": "36.7903098",
    "longitude": "3.0172742",
    "wilaya_id": 16
  },
  {
    "id": 3082,
    "name": "BOUGARA",
    "latitude": "36.5448652",
    "longitude": "3.0869346",
    "wilaya_id": 9
  },
  {
    "id": 3083,
    "name": "DOUCEN",
    "latitude": "34.5975449",
    "longitude": "5.1029298",
    "wilaya_id": 50
  },
  {
    "id": 3084,
    "name": "MERS EL KEBIR",
    "latitude": "35.7277218",
    "longitude": "-0.7085452",
    "wilaya_id": 31
  },
  {
    "id": 3085,
    "name": "OULED DJELLAL",
    "latitude": "34.4254103",
    "longitude": "5.0644342",
    "wilaya_id": 50
  },
  {
    "id": 3086,
    "name": "AIN TOLBA",
    "latitude": "35.2416188",
    "longitude": "-1.2485001",
    "wilaya_id": 46
  },
  {
    "id": 3087,
    "name": "EL MARSA",
    "latitude": "36.8091281",
    "longitude": "3.2546039",
    "wilaya_id": 16
  },
  {
    "id": 3088,
    "name": "EL ANCOR",
    "latitude": "35.6848518",
    "longitude": "-0.8699583",
    "wilaya_id": 31
  },
  {
    "id": 3089,
    "name": "IFERHOUNENE",
    "latitude": "36.5209675",
    "longitude": "4.3695222",
    "wilaya_id": 15
  },
  {
    "id": 3090,
    "name": "GHAZAOUET",
    "latitude": "35.093863",
    "longitude": "-1.86322",
    "wilaya_id": 13
  },
  {
    "id": 3091,
    "name": "TIMIAOUINE",
    "latitude": "20.4339578",
    "longitude": "1.8101265",
    "wilaya_id": 51
  },
  {
    "id": 3092,
    "name": "TAOUGRITE",
    "latitude": "36.2472325",
    "longitude": "0.9222293",
    "wilaya_id": 2
  },
  {
    "id": 3093,
    "name": "AOMAR",
    "latitude": "36.492393",
    "longitude": "3.7711939",
    "wilaya_id": 10
  },
  {
    "id": 3094,
    "name": "BERRIANE",
    "latitude": "32.8256322",
    "longitude": "3.7639006",
    "wilaya_id": 47
  },
  {
    "id": 3095,
    "name": "HAMMAM DHALAA",
    "latitude": "35.9281238",
    "longitude": "4.3742303",
    "wilaya_id": 28
  },
  {
    "id": 3096,
    "name": "KOLEA",
    "latitude": "36.6373657",
    "longitude": "2.769126",
    "wilaya_id": 42
  },
  {
    "id": 3097,
    "name": "ZITOUNA",
    "latitude": "36.9888886",
    "longitude": "6.4592299",
    "wilaya_id": 21
  },
  {
    "id": 3098,
    "name": "ISSER",
    "latitude": "36.6935557",
    "longitude": "3.6915459",
    "wilaya_id": 35
  },
  {
    "id": 3099,
    "name": "SIDI AOUN",
    "latitude": "33.8391534",
    "longitude": "6.8108559",
    "wilaya_id": 39
  },
  {
    "id": 3100,
    "name": "MOUZAIA",
    "latitude": "36.4674416",
    "longitude": "2.6879953",
    "wilaya_id": 9
  },
  {
    "id": 3101,
    "name": "BOUGUIRAT",
    "latitude": "35.7502319",
    "longitude": "0.2566146",
    "wilaya_id": 27
  },
  {
    "id": 3102,
    "name": "SOUAGUI",
    "latitude": "36.1255019",
    "longitude": "3.265101",
    "wilaya_id": 26
  },
  {
    "id": 3103,
    "name": "RAS EL AIOUN",
    "latitude": "35.6758524",
    "longitude": "5.6515672",
    "wilaya_id": 5
  },
  {
    "id": 3104,
    "name": "TAMANRASSET",
    "latitude": "22.7859372",
    "longitude": "5.5291395",
    "wilaya_id": 11
  },
  {
    "id": 3105,
    "name": "IFLISSEN",
    "latitude": "36.8722166",
    "longitude": "4.2221877",
    "wilaya_id": 15
  },
  {
    "id": 3106,
    "name": "BOUFARIK",
    "latitude": "36.5755523",
    "longitude": "2.9128963",
    "wilaya_id": 9
  },
  {
    "id": 3107,
    "name": "AIN TAGHROUT",
    "latitude": "36.1445264",
    "longitude": "5.1132662",
    "wilaya_id": 34
  },
  {
    "id": 3108,
    "name": "EL ANSEUR",
    "latitude": "36.0404413",
    "longitude": "4.8186386",
    "wilaya_id": 34
  },
  {
    "id": 3109,
    "name": "BOU ISMAIL",
    "latitude": "36.642758",
    "longitude": "2.6899362",
    "wilaya_id": 42
  },
  {
    "id": 3110,
    "name": "OUACIF",
    "latitude": "36.523854",
    "longitude": "4.2049176",
    "wilaya_id": 15
  },
  {
    "id": 3111,
    "name": "EL HARROUCH",
    "latitude": "36.6514052",
    "longitude": "6.8360907",
    "wilaya_id": 21
  },
  {
    "id": 3112,
    "name": "YOUB",
    "latitude": "34.921672",
    "longitude": "-0.208054",
    "wilaya_id": 20
  },
  {
    "id": 3113,
    "name": "BOUMERDES",
    "latitude": "36.7590403",
    "longitude": "3.473102",
    "wilaya_id": 35
  },
  {
    "id": 3114,
    "name": "BOUSSEMGHOUN",
    "latitude": "32.8081869",
    "longitude": "0.0635802",
    "wilaya_id": 32
  },
  {
    "id": 3115,
    "name": "MIHOUB",
    "latitude": "36.3863727",
    "longitude": "3.4540976",
    "wilaya_id": 26
  },
  {
    "id": 3116,
    "name": "SOUIDANIA",
    "latitude": "36.7085304",
    "longitude": "2.9116721",
    "wilaya_id": 16
  },
  {
    "id": 3117,
    "name": "HYDRA",
    "latitude": "36.7474259",
    "longitude": "3.0401832",
    "wilaya_id": 16
  },
  {
    "id": 3118,
    "name": "MARSAT EL HADJADJ",
    "latitude": "35.7948853",
    "longitude": "-0.1652125",
    "wilaya_id": 31
  },
  {
    "id": 3119,
    "name": "AIN AZAL",
    "latitude": "35.8178542",
    "longitude": "5.5111895",
    "wilaya_id": 19
  },
  {
    "id": 3120,
    "name": "EL BRAYA",
    "latitude": "35.6291461",
    "longitude": "-0.5191909",
    "wilaya_id": 31
  },
  {
    "id": 3121,
    "name": "KSOUR",
    "latitude": "35.9853662",
    "longitude": "4.565032",
    "wilaya_id": 34
  },
  {
    "id": 3122,
    "name": "AIN FARES",
    "latitude": "35.4771078",
    "longitude": "0.245587",
    "wilaya_id": 29
  },
  {
    "id": 3123,
    "name": "BOUHANIFIA",
    "latitude": "35.3151029",
    "longitude": "-0.0486241",
    "wilaya_id": 29
  },
  {
    "id": 3124,
    "name": "HAMMAM BOUHADJAR",
    "latitude": "35.3790296",
    "longitude": "-0.9711585",
    "wilaya_id": 46
  },
  {
    "id": 3125,
    "name": "BORDJ MENAIEL",
    "latitude": "36.7432364",
    "longitude": "3.7175665",
    "wilaya_id": 35
  },
  {
    "id": 3126,
    "name": "DAHOUARA",
    "latitude": "36.3144516",
    "longitude": "7.7003021",
    "wilaya_id": 24
  },
  {
    "id": 3127,
    "name": "BAB EL OUED",
    "latitude": "36.7907677",
    "longitude": "3.0530812",
    "wilaya_id": 16
  },
  {
    "id": 3128,
    "name": "TALA IFACENE",
    "latitude": "36.4543155",
    "longitude": "5.1174953",
    "wilaya_id": 19
  },
  {
    "id": 3129,
    "name": "CHIHANI",
    "latitude": "36.6473548",
    "longitude": "7.7780261",
    "wilaya_id": 36
  },
  {
    "id": 3130,
    "name": "BENI MAOUCHE",
    "latitude": "36.4878512",
    "longitude": "4.787552",
    "wilaya_id": 6
  },
  {
    "id": 3131,
    "name": "AIN MAKHLOUF",
    "latitude": "36.2427266",
    "longitude": "7.2491244",
    "wilaya_id": 24
  },
  {
    "id": 3132,
    "name": "AIN EL HADJAR",
    "latitude": "36.3402284",
    "longitude": "3.8095209",
    "wilaya_id": 10
  },
  {
    "id": 3133,
    "name": "KADIRIA",
    "latitude": "36.5354385",
    "longitude": "3.6788401",
    "wilaya_id": 10
  },
  {
    "id": 3134,
    "name": "AIT OUMALOU",
    "latitude": "36.6551697",
    "longitude": "4.2284389",
    "wilaya_id": 15
  },
  {
    "id": 3135,
    "name": "AIN TOUTA",
    "latitude": "35.3752089",
    "longitude": "5.894213",
    "wilaya_id": 5
  },
  {
    "id": 3136,
    "name": "KHEMISTI",
    "latitude": "36.625387",
    "longitude": "2.6797524",
    "wilaya_id": 42
  },
  {
    "id": 3137,
    "name": "SIDI BOUSSAID",
    "latitude": "35.2733671",
    "longitude": "0.2986103",
    "wilaya_id": 29
  },
  {
    "id": 3138,
    "name": "BENI SNOUS",
    "latitude": "34.6246281",
    "longitude": "-1.5551957",
    "wilaya_id": 13
  },
  {
    "id": 3139,
    "name": "BECHLOUL",
    "latitude": "36.312195",
    "longitude": "4.0749566",
    "wilaya_id": 10
  },
  {
    "id": 3140,
    "name": "OULED RABAH",
    "latitude": "36.6216559",
    "longitude": "6.17312",
    "wilaya_id": 18
  },
  {
    "id": 3141,
    "name": "GUELTAT SIDI SAAD",
    "latitude": "34.2701253",
    "longitude": "1.8420835",
    "wilaya_id": 3
  },
  {
    "id": 3142,
    "name": "AGHRIB",
    "latitude": "36.8045313",
    "longitude": "4.3230947",
    "wilaya_id": 15
  },
  {
    "id": 3143,
    "name": "EL HASSI",
    "latitude": "35.7804723",
    "longitude": "5.9503611",
    "wilaya_id": 5
  },
  {
    "id": 3144,
    "name": "KHRAISSIA",
    "latitude": "36.6771908",
    "longitude": "2.9823355",
    "wilaya_id": 16
  },
  {
    "id": 3145,
    "name": "ZENATA",
    "latitude": "34.9894903",
    "longitude": "-1.4630565",
    "wilaya_id": 13
  },
  {
    "id": 3146,
    "name": "MAOUSSA",
    "latitude": "35.3782884",
    "longitude": "0.2457041",
    "wilaya_id": 29
  },
  {
    "id": 3147,
    "name": "SIDI OKBA",
    "latitude": "34.7497613",
    "longitude": "5.9107849",
    "wilaya_id": 7
  },
  {
    "id": 3148,
    "name": "OUZERA",
    "latitude": "36.2526315",
    "longitude": "2.8466043",
    "wilaya_id": 26
  },
  {
    "id": 3149,
    "name": "MEDJEDEL",
    "latitude": "35.1467087",
    "longitude": "3.6793899",
    "wilaya_id": 28
  },
  {
    "id": 3150,
    "name": "EL KEURT",
    "latitude": "35.3809268",
    "longitude": "0.0921516",
    "wilaya_id": 29
  },
  {
    "id": 3151,
    "name": "CHEKFA",
    "latitude": "36.7712723",
    "longitude": "5.9612456",
    "wilaya_id": 18
  },
  {
    "id": 3152,
    "name": "SIDI NAAMANE",
    "latitude": "36.2147224",
    "longitude": "3.1265784",
    "wilaya_id": 26
  },
  {
    "id": 3153,
    "name": "FOUKA",
    "latitude": "36.6615612",
    "longitude": "2.7421167",
    "wilaya_id": 42
  },
  {
    "id": 3154,
    "name": "AIT AISSA MIMOUN",
    "latitude": "36.7506544",
    "longitude": "4.1103247",
    "wilaya_id": 15
  },
  {
    "id": 3155,
    "name": "SIDI GHILES",
    "latitude": "36.5833323",
    "longitude": "2.1225093",
    "wilaya_id": 42
  },
  {
    "id": 3156,
    "name": "EL ACHIR",
    "latitude": "36.0632388",
    "longitude": "4.6294961",
    "wilaya_id": 34
  },
  {
    "id": 3157,
    "name": "MOHAMMADIA",
    "latitude": "36.7288713",
    "longitude": "3.1469178",
    "wilaya_id": 16
  },
  {
    "id": 3158,
    "name": "SOUMAA",
    "latitude": "36.5184909",
    "longitude": "2.9084853",
    "wilaya_id": 9
  },
  {
    "id": 3159,
    "name": "BOGHNI",
    "latitude": "36.5407471",
    "longitude": "3.9571285",
    "wilaya_id": 15
  },
  {
    "id": 3160,
    "name": "AMMI MOUSSA",
    "latitude": "35.8702048",
    "longitude": "1.1081265",
    "wilaya_id": 48
  },
  {
    "id": 3161,
    "name": "EL HARRACH",
    "latitude": "36.7207974",
    "longitude": "3.1373893",
    "wilaya_id": 16
  },
  {
    "id": 3162,
    "name": "KHEMIS MILIANA",
    "latitude": "36.2560052",
    "longitude": "2.2206013",
    "wilaya_id": 44
  },
  {
    "id": 3163,
    "name": "DJENDEL",
    "latitude": "36.2192263",
    "longitude": "2.4153796",
    "wilaya_id": 44
  },
  {
    "id": 3164,
    "name": "HAMMAM NBAIL",
    "latitude": "36.3255156",
    "longitude": "7.640326",
    "wilaya_id": 24
  },
  {
    "id": 3165,
    "name": "AIN DEHEB",
    "latitude": "34.8442761",
    "longitude": "1.5482536",
    "wilaya_id": 14
  },
  {
    "id": 3166,
    "name": "BENI MESSOUS",
    "latitude": "36.7800963",
    "longitude": "2.974557",
    "wilaya_id": 16
  },
  {
    "id": 3167,
    "name": "BARBOUCHE",
    "latitude": "36.1070568",
    "longitude": "2.4834843",
    "wilaya_id": 44
  },
  {
    "id": 3168,
    "name": "CHEMINI",
    "latitude": "36.5944018",
    "longitude": "4.6210413",
    "wilaya_id": 6
  },
  {
    "id": 3169,
    "name": "BORDJ OMAR DRISS",
    "latitude": "28.1210578",
    "longitude": "6.820793",
    "wilaya_id": 33
  },
  {
    "id": 3170,
    "name": "BARBACHA",
    "latitude": "36.5734726",
    "longitude": "4.9693825",
    "wilaya_id": 6
  },
  {
    "id": 3171,
    "name": "ZIAMA MANSOURIA",
    "latitude": "36.6721506",
    "longitude": "5.4808312",
    "wilaya_id": 18
  },
  {
    "id": 3172,
    "name": "OULED MOUSSA",
    "latitude": "36.6857409",
    "longitude": "3.3642924",
    "wilaya_id": 35
  },
  {
    "id": 3173,
    "name": "AIN TAGOURAIT",
    "latitude": "36.6027844",
    "longitude": "2.6090961",
    "wilaya_id": 42
  },
  {
    "id": 3174,
    "name": "AIN NAGA",
    "latitude": "34.6535415",
    "longitude": "6.1416099",
    "wilaya_id": 7
  },
  {
    "id": 3175,
    "name": "EL KENNAR NOUCHFI",
    "latitude": "36.8125018",
    "longitude": "5.9862932",
    "wilaya_id": 18
  },
  {
    "id": 3176,
    "name": "TAMALOUS",
    "latitude": "36.8361791",
    "longitude": "6.6427952",
    "wilaya_id": 21
  },
  {
    "id": 3177,
    "name": "OUYOUN EL ASSAFIR",
    "latitude": "35.5556005",
    "longitude": "6.3083393",
    "wilaya_id": 5
  },
  {
    "id": 3178,
    "name": "BERRIHANE",
    "latitude": "36.8376854",
    "longitude": "8.1257847",
    "wilaya_id": 36
  },
  {
    "id": 3179,
    "name": "BEKKOUCHE LAKHDAR",
    "latitude": "36.6939025",
    "longitude": "7.3105409",
    "wilaya_id": 21
  },
  {
    "id": 3180,
    "name": "CHETMA",
    "latitude": "34.8447307",
    "longitude": "5.7939424",
    "wilaya_id": 7
  },
  {
    "id": 3181,
    "name": "AIN KERMA",
    "latitude": "36.563333",
    "longitude": "8.1984116",
    "wilaya_id": 36
  },
  {
    "id": 3182,
    "name": "BIR EL ATER",
    "latitude": "34.7441882",
    "longitude": "8.0584012",
    "wilaya_id": 12
  },
  {
    "id": 3183,
    "name": "LARBA NAIT IRATHEN",
    "latitude": "36.6374918",
    "longitude": "4.2028466",
    "wilaya_id": 15
  },
  {
    "id": 3184,
    "name": "HARCHOUN",
    "latitude": "36.1137919",
    "longitude": "1.5061783",
    "wilaya_id": 2
  },
  {
    "id": 3185,
    "name": "DRAA EL KAID",
    "latitude": "36.4400561",
    "longitude": "5.234867",
    "wilaya_id": 6
  },
  {
    "id": 3186,
    "name": "MANSOURA",
    "latitude": "36.1003544",
    "longitude": "4.4715751",
    "wilaya_id": 34
  },
  {
    "id": 3187,
    "name": "AIN BENIAN",
    "latitude": "36.3523428",
    "longitude": "2.3899539",
    "wilaya_id": 44
  },
  {
    "id": 3188,
    "name": "OULED ZOUAI",
    "latitude": "35.8402214",
    "longitude": "6.5114278",
    "wilaya_id": 4
  },
  {
    "id": 3189,
    "name": "KHEZARA",
    "latitude": "36.3681295",
    "longitude": "7.5278729",
    "wilaya_id": 24
  },
  {
    "id": 3190,
    "name": "FORNAKA",
    "latitude": "35.7519675",
    "longitude": "-0.0167043",
    "wilaya_id": 27
  },
  {
    "id": 3191,
    "name": "SERIANA",
    "latitude": "35.6925612",
    "longitude": "6.1850558",
    "wilaya_id": 5
  },
  {
    "id": 3192,
    "name": "EL ATTEUF",
    "latitude": "32.476746",
    "longitude": "3.7471239",
    "wilaya_id": 47
  },
  {
    "id": 3193,
    "name": "BOUKHADRA",
    "latitude": "35.7449518",
    "longitude": "8.0346837",
    "wilaya_id": 12
  },
  {
    "id": 3194,
    "name": "SIDI MAAROUF",
    "latitude": "36.6400065",
    "longitude": "6.2741706",
    "wilaya_id": 18
  },
  {
    "id": 3195,
    "name": "TAGHZOUT",
    "latitude": "33.4754769",
    "longitude": "6.7998514",
    "wilaya_id": 39
  },
  {
    "id": 3196,
    "name": "RAHOUIA",
    "latitude": "35.53032",
    "longitude": "1.0237833",
    "wilaya_id": 14
  },
  {
    "id": 3197,
    "name": "TACHOUDA",
    "latitude": "36.267485",
    "longitude": "5.7400239",
    "wilaya_id": 19
  },
  {
    "id": 3198,
    "name": "LAYOUNE",
    "latitude": "35.6683622",
    "longitude": "2.0645059",
    "wilaya_id": 38
  },
  {
    "id": 3199,
    "name": "OULED RACHED",
    "latitude": "36.2100292",
    "longitude": "4.1097138",
    "wilaya_id": 10
  },
  {
    "id": 3200,
    "name": "SOUANI",
    "latitude": "34.9221475",
    "longitude": "-1.9158423",
    "wilaya_id": 13
  },
  {
    "id": 3201,
    "name": "YAKOUREN",
    "latitude": "36.7335937",
    "longitude": "4.4389944",
    "wilaya_id": 15
  },
  {
    "id": 3202,
    "name": "EL AMRA",
    "latitude": "36.3050171",
    "longitude": "1.8482739",
    "wilaya_id": 44
  },
  {
    "id": 3203,
    "name": "EL OMARIA",
    "latitude": "36.2671619",
    "longitude": "3.0270877",
    "wilaya_id": 26
  },
  {
    "id": 3204,
    "name": "HONAINE",
    "latitude": "35.178264",
    "longitude": "-1.6534421",
    "wilaya_id": 13
  },
  {
    "id": 3205,
    "name": "EL HAMMADIA",
    "latitude": "35.972194",
    "longitude": "4.7704828",
    "wilaya_id": 34
  },
  {
    "id": 3206,
    "name": "AFLOU",
    "latitude": "34.11252",
    "longitude": "2.10029",
    "wilaya_id": 3
  },
  {
    "id": 3207,
    "name": "FERRAOUN",
    "latitude": "36.5580756",
    "longitude": "4.8660488",
    "wilaya_id": 6
  },
  {
    "id": 3208,
    "name": "AIN BEIDA",
    "latitude": "31.9392925",
    "longitude": "5.3915209",
    "wilaya_id": 30
  },
  {
    "id": 3209,
    "name": "ZERIBET EL OUED",
    "latitude": "34.6830199",
    "longitude": "6.5047333",
    "wilaya_id": 7
  },
  {
    "id": 3210,
    "name": "SIDI LAKHDAR",
    "latitude": "36.1643449",
    "longitude": "0.4406587",
    "wilaya_id": 27
  },
  {
    "id": 3211,
    "name": "BENI ZID",
    "latitude": "36.9124122",
    "longitude": "6.4762934",
    "wilaya_id": 21
  },
  {
    "id": 3212,
    "name": "MSIRDA FOUAGA",
    "latitude": "35.0188577",
    "longitude": "-2.0831565",
    "wilaya_id": 13
  },
  {
    "id": 3213,
    "name": "BOUDOUAOU EL BAHRI",
    "latitude": "36.7721989",
    "longitude": "3.4044018",
    "wilaya_id": 35
  },
  {
    "id": 3214,
    "name": "ZAAFRANE",
    "latitude": "34.8502549",
    "longitude": "2.8549624",
    "wilaya_id": 17
  },
  {
    "id": 3215,
    "name": "AIN DISS",
    "latitude": "36.0139339",
    "longitude": "7.0323694",
    "wilaya_id": 4
  },
  {
    "id": 3216,
    "name": "BENI HAOUA",
    "latitude": "36.5304451",
    "longitude": "1.5692626",
    "wilaya_id": 2
  },
  {
    "id": 3217,
    "name": "BORDJ BOUNAAMA",
    "latitude": "35.8505025",
    "longitude": "1.6170851",
    "wilaya_id": 38
  },
  {
    "id": 3218,
    "name": "BOUINAN",
    "latitude": "36.5322102",
    "longitude": "2.9918496",
    "wilaya_id": 9
  },
  {
    "id": 3219,
    "name": "TOUAHRIA",
    "latitude": "35.8106097",
    "longitude": "0.2109301",
    "wilaya_id": 27
  },
  {
    "id": 3220,
    "name": "BENI BAHDEL",
    "latitude": "34.6937442",
    "longitude": "-1.5187011",
    "wilaya_id": 13
  },
  {
    "id": 3221,
    "name": "TICHI",
    "latitude": "36.543869",
    "longitude": "5.443467",
    "wilaya_id": 6
  },
  {
    "id": 3222,
    "name": "SEDJERARA",
    "latitude": "35.6299882",
    "longitude": "0.2132915",
    "wilaya_id": 29
  },
  {
    "id": 3223,
    "name": "TALEB LARBI",
    "latitude": "33.728911",
    "longitude": "7.5176604",
    "wilaya_id": 39
  },
  {
    "id": 3224,
    "name": "DAHMOUNI",
    "latitude": "35.4493097",
    "longitude": "1.4244372",
    "wilaya_id": 14
  },
  {
    "id": 3225,
    "name": "ROUISSAT",
    "latitude": "31.9239554",
    "longitude": "5.3498372",
    "wilaya_id": 30
  },
  {
    "id": 3226,
    "name": "SIDI LANTRI",
    "latitude": "35.6936399",
    "longitude": "1.5032488",
    "wilaya_id": 38
  },
  {
    "id": 3227,
    "name": "FESDIS",
    "latitude": "35.6181167",
    "longitude": "6.2464392",
    "wilaya_id": 5
  },
  {
    "id": 3228,
    "name": "ZEBOUDJA",
    "latitude": "36.3540252",
    "longitude": "1.4302999",
    "wilaya_id": 2
  },
  {
    "id": 3229,
    "name": "AKFADOU",
    "latitude": "36.6578395",
    "longitude": "4.6068165",
    "wilaya_id": 6
  },
  {
    "id": 3230,
    "name": "OUM TOUB",
    "latitude": "36.7003588",
    "longitude": "6.5076167",
    "wilaya_id": 21
  },
  {
    "id": 3231,
    "name": "MEDJANA",
    "latitude": "36.1311024",
    "longitude": "4.669174",
    "wilaya_id": 34
  },
  {
    "id": 3232,
    "name": "SIDI AICH",
    "latitude": "36.6127914",
    "longitude": "4.6913091",
    "wilaya_id": 6
  },
  {
    "id": 3233,
    "name": "EL ABIODH SIDI CHEIKH",
    "latitude": "32.896484",
    "longitude": "0.5463928",
    "wilaya_id": 32
  },
  {
    "id": 3234,
    "name": "OULED AMMAR",
    "latitude": "35.4622558",
    "longitude": "5.1560233",
    "wilaya_id": 5
  },
  {
    "id": 3235,
    "name": "SIDI SLIMANE",
    "latitude": "35.8544291",
    "longitude": "1.7237871",
    "wilaya_id": 38
  },
  {
    "id": 3236,
    "name": "BENSEKRANE",
    "latitude": "35.1109",
    "longitude": "-1.1998396",
    "wilaya_id": 13
  },
  {
    "id": 3237,
    "name": "TALASSA",
    "latitude": "36.4179865",
    "longitude": "1.0698952",
    "wilaya_id": 2
  },
  {
    "id": 3238,
    "name": "BORDJ BADJI MOKHTAR",
    "latitude": "21.3302568",
    "longitude": "0.9540403",
    "wilaya_id": 51
  },
  {
    "id": 3239,
    "name": "SIDI ABDELLI",
    "latitude": "35.044515",
    "longitude": "-1.1127416",
    "wilaya_id": 13
  },
  {
    "id": 3240,
    "name": "BENI DOUALA",
    "latitude": "36.6188796",
    "longitude": "4.0824933",
    "wilaya_id": 15
  },
  {
    "id": 3241,
    "name": "DAHRA",
    "latitude": "36.2545642",
    "longitude": "0.8518821",
    "wilaya_id": 2
  },
  {
    "id": 3242,
    "name": "DJENDEL SAADI MOHAMED",
    "latitude": "36.7792138",
    "longitude": "7.1724216",
    "wilaya_id": 21
  },
  {
    "id": 3243,
    "name": "OULED ADDI GUEBALA",
    "latitude": "35.675496",
    "longitude": "4.9072115",
    "wilaya_id": 28
  },
  {
    "id": 3244,
    "name": "MENAA",
    "latitude": "35.1762498",
    "longitude": "6.0039939",
    "wilaya_id": 5
  },
  {
    "id": 3245,
    "name": "TADMAIT",
    "latitude": "36.7446573",
    "longitude": "3.9012256",
    "wilaya_id": 15
  },
  {
    "id": 3246,
    "name": "BOUCHEGOUF",
    "latitude": "36.4704821",
    "longitude": "7.7290561",
    "wilaya_id": 24
  },
  {
    "id": 3247,
    "name": "LAHMAR",
    "latitude": "31.8492486",
    "longitude": "-2.2807576",
    "wilaya_id": 8
  },
  {
    "id": 3248,
    "name": "MISSERGHIN",
    "latitude": "35.6179905",
    "longitude": "-0.7343553",
    "wilaya_id": 31
  },
  {
    "id": 3249,
    "name": "LIOUA",
    "latitude": "34.6392137",
    "longitude": "5.4009134",
    "wilaya_id": 7
  },
  {
    "id": 3250,
    "name": "AIN TORKI",
    "latitude": "36.3348803",
    "longitude": "2.3032371",
    "wilaya_id": 44
  },
  {
    "id": 3251,
    "name": "M_ZIRAA",
    "latitude": "34.7207686",
    "longitude": "6.2947449",
    "wilaya_id": 7
  },
  {
    "id": 3252,
    "name": "BIR GHBALOU",
    "latitude": "36.2628812",
    "longitude": "3.5850113",
    "wilaya_id": 10
  },
  {
    "id": 3253,
    "name": "SEBDOU",
    "latitude": "34.6403022",
    "longitude": "-1.3220383",
    "wilaya_id": 13
  },
  {
    "id": 3254,
    "name": "FREHA",
    "latitude": "36.757399",
    "longitude": "4.3194454",
    "wilaya_id": 15
  },
  {
    "id": 3255,
    "name": "SEGHOUANE",
    "latitude": "36.0008943",
    "longitude": "2.905162",
    "wilaya_id": 26
  },
  {
    "id": 3256,
    "name": "CHEURFA",
    "latitude": "36.7221505",
    "longitude": "7.5731982",
    "wilaya_id": 23
  },
  {
    "id": 3257,
    "name": "SIDI AMEUR",
    "latitude": "35.3651917",
    "longitude": "3.8257007",
    "wilaya_id": 28
  },
  {
    "id": 3258,
    "name": "BOUZEGHAIA",
    "latitude": "36.3605876",
    "longitude": "1.2627232",
    "wilaya_id": 2
  },
  {
    "id": 3259,
    "name": "AIN BEN KHELIL",
    "latitude": "33.160057",
    "longitude": "-0.9420284",
    "wilaya_id": 45
  },
  {
    "id": 3260,
    "name": "BEN AZZOUZ",
    "latitude": "36.8600024",
    "longitude": "7.2917539",
    "wilaya_id": 21
  },
  {
    "id": 3261,
    "name": "KSAR EL HIRANE",
    "latitude": "33.7012081",
    "longitude": "3.2269282",
    "wilaya_id": 3
  },
  {
    "id": 3262,
    "name": "BEN AKNOUN",
    "latitude": "36.7565214",
    "longitude": "3.0084296",
    "wilaya_id": 16
  },
  {
    "id": 3263,
    "name": "MEGARINE",
    "latitude": "33.1930214",
    "longitude": "6.0932032",
    "wilaya_id": 55
  },
  {
    "id": 3264,
    "name": "OULED CHEBEL",
    "latitude": "36.5981574",
    "longitude": "2.9949504",
    "wilaya_id": 16
  },
  {
    "id": 3265,
    "name": "AIN ROMANA",
    "latitude": "36.4065567",
    "longitude": "2.691004",
    "wilaya_id": 9
  },
  {
    "id": 3266,
    "name": "TADJENANET",
    "latitude": "36.1192994",
    "longitude": "5.9857948",
    "wilaya_id": 43
  },
  {
    "id": 3267,
    "name": "OUED MORRA",
    "latitude": "34.1649241",
    "longitude": "2.3247059",
    "wilaya_id": 3
  },
  {
    "id": 3268,
    "name": "OUED ATHMANIA",
    "latitude": "36.266171",
    "longitude": "6.3117791",
    "wilaya_id": 43
  },
  {
    "id": 3269,
    "name": "KHERRATA",
    "latitude": "36.4936262",
    "longitude": "5.2771041",
    "wilaya_id": 6
  },
  {
    "id": 3270,
    "name": "TIRMITINE",
    "latitude": "36.6686811",
    "longitude": "3.9653731",
    "wilaya_id": 15
  },
  {
    "id": 3271,
    "name": "OULED RECHACHE",
    "latitude": "35.2972988",
    "longitude": "7.3548369",
    "wilaya_id": 40
  },
  {
    "id": 3272,
    "name": "ARZEW",
    "latitude": "35.856348",
    "longitude": "-0.313678",
    "wilaya_id": 31
  },
  {
    "id": 3273,
    "name": "DJEMILA",
    "latitude": "36.3208994",
    "longitude": "5.7367902",
    "wilaya_id": 19
  },
  {
    "id": 3274,
    "name": "OUARIZANE",
    "latitude": "36.0444332",
    "longitude": "0.8959531",
    "wilaya_id": 48
  },
  {
    "id": 3275,
    "name": "OULED KIHAL",
    "latitude": "35.3685532",
    "longitude": "-1.2348973",
    "wilaya_id": 46
  },
  {
    "id": 3276,
    "name": "EL GUELBELKEBIR",
    "latitude": "36.2556406",
    "longitude": "3.4168521",
    "wilaya_id": 26
  },
  {
    "id": 3277,
    "name": "BIR OULED KHELIFA",
    "latitude": "36.1807064",
    "longitude": "2.2276595",
    "wilaya_id": 44
  },
  {
    "id": 3278,
    "name": "AMIZOUR",
    "latitude": "36.6439022",
    "longitude": "4.9036535",
    "wilaya_id": 6
  },
  {
    "id": 3279,
    "name": "AIN BEIDA HARRICHE",
    "latitude": "36.3959678",
    "longitude": "5.8941024",
    "wilaya_id": 43
  },
  {
    "id": 3280,
    "name": "GOLEA",
    "latitude": "30.5836683",
    "longitude": "2.8830889",
    "wilaya_id": 58
  },
  {
    "id": 3281,
    "name": "BREZINA",
    "latitude": "32.5323489",
    "longitude": "1.754273",
    "wilaya_id": 32
  },
  {
    "id": 3282,
    "name": "BENI AISSI",
    "latitude": "36.6577044",
    "longitude": "4.0893302",
    "wilaya_id": 15
  },
  {
    "id": 3283,
    "name": "MECHROHA",
    "latitude": "36.3565124",
    "longitude": "7.8387478",
    "wilaya_id": 41
  },
  {
    "id": 3284,
    "name": "AIN ABESSA",
    "latitude": "36.3000482",
    "longitude": "5.2953337",
    "wilaya_id": 19
  },
  {
    "id": 3285,
    "name": "TAFRAOUI",
    "latitude": "35.444756",
    "longitude": "-0.5542336",
    "wilaya_id": 31
  },
  {
    "id": 3286,
    "name": "DHALAA",
    "latitude": "35.460285",
    "longitude": "7.5500058",
    "wilaya_id": 4
  },
  {
    "id": 3287,
    "name": "SIDI AMRANE",
    "latitude": "35.0357093",
    "longitude": "6.3405626",
    "wilaya_id": 39
  },
  {
    "id": 3288,
    "name": "EL KHEMIS",
    "latitude": "35.4050761",
    "longitude": "2.7048777",
    "wilaya_id": 17
  },
  {
    "id": 3289,
    "name": "BOUSFER",
    "latitude": "35.7012331",
    "longitude": "-0.8103918",
    "wilaya_id": 31
  },
  {
    "id": 3290,
    "name": "EL HADJEB",
    "latitude": "34.7892294",
    "longitude": "5.5996001",
    "wilaya_id": 7
  },
  {
    "id": 3291,
    "name": "KAOUS",
    "latitude": "36.7701723",
    "longitude": "5.8136168",
    "wilaya_id": 18
  },
  {
    "id": 3292,
    "name": "OULED RAHMOUN",
    "latitude": "36.1788485",
    "longitude": "6.701422",
    "wilaya_id": 25
  },
  {
    "id": 3293,
    "name": "OULED BRAHIM",
    "latitude": "34.9895932",
    "longitude": "0.475625",
    "wilaya_id": 20
  },
  {
    "id": 3294,
    "name": "AIN LARBI",
    "latitude": "36.2850588",
    "longitude": "7.3882292",
    "wilaya_id": 24
  },
  {
    "id": 3295,
    "name": "KHEIR EDDINE",
    "latitude": "35.9510576",
    "longitude": "0.1799828",
    "wilaya_id": 27
  },
  {
    "id": 3296,
    "name": "CHREA",
    "latitude": "36.4267854",
    "longitude": "2.8765029",
    "wilaya_id": 9
  },
  {
    "id": 3297,
    "name": "MKIRA",
    "latitude": "36.6315675",
    "longitude": "3.7830006",
    "wilaya_id": 15
  },
  {
    "id": 3298,
    "name": "MENDES",
    "latitude": "35.6507899",
    "longitude": "0.8644816",
    "wilaya_id": 48
  },
  {
    "id": 3299,
    "name": "HAMMAM DEBAGH",
    "latitude": "36.4602654",
    "longitude": "7.2676947",
    "wilaya_id": 24
  },
  {
    "id": 3300,
    "name": "HAMMAM RIGHA",
    "latitude": "36.3827173",
    "longitude": "2.4009305",
    "wilaya_id": 44
  },
  {
    "id": 3301,
    "name": "MESSELMOUN",
    "latitude": "36.5626559",
    "longitude": "2.0022623",
    "wilaya_id": 42
  },
  {
    "id": 3302,
    "name": "BEN MHIDI",
    "latitude": "36.7704579",
    "longitude": "7.9053142",
    "wilaya_id": 36
  },
  {
    "id": 3303,
    "name": "OGGAZ",
    "latitude": "35.5621748",
    "longitude": "-0.2588196",
    "wilaya_id": 29
  },
  {
    "id": 3304,
    "name": "DELLYS",
    "latitude": "36.9140699",
    "longitude": "3.9129556",
    "wilaya_id": 35
  },
  {
    "id": 3305,
    "name": "FROHA",
    "latitude": "35.27606",
    "longitude": "0.120643",
    "wilaya_id": 29
  },
  {
    "id": 3306,
    "name": "BOURKIKA",
    "latitude": "36.4942993",
    "longitude": "2.4775236",
    "wilaya_id": 42
  },
  {
    "id": 3307,
    "name": "TAZMALT",
    "latitude": "36.3885111",
    "longitude": "4.4000106",
    "wilaya_id": 6
  },
  {
    "id": 3308,
    "name": "EL MAHMAL",
    "latitude": "35.3751785",
    "longitude": "7.2115567",
    "wilaya_id": 40
  },
  {
    "id": 3309,
    "name": "AIN FEKAN",
    "latitude": "35.1763942",
    "longitude": "-0.024915",
    "wilaya_id": 29
  },
  {
    "id": 3310,
    "name": "KHENEG",
    "latitude": "33.7447402",
    "longitude": "2.7911348",
    "wilaya_id": 3
  },
  {
    "id": 3311,
    "name": "BENI OUNIF",
    "latitude": "32.0501891",
    "longitude": "-1.2486808",
    "wilaya_id": 8
  },
  {
    "id": 3312,
    "name": "BOUGOUS",
    "latitude": "36.6582252",
    "longitude": "8.3707314",
    "wilaya_id": 36
  },
  {
    "id": 3313,
    "name": "BOUHAROUN",
    "latitude": "36.6248757",
    "longitude": "2.657232",
    "wilaya_id": 42
  },
  {
    "id": 3314,
    "name": "HASSI EL EUCH",
    "latitude": "35.0780426",
    "longitude": "3.2427004",
    "wilaya_id": 17
  },
  {
    "id": 3315,
    "name": "BENI AZIZ",
    "latitude": "36.4645062",
    "longitude": "5.6490139",
    "wilaya_id": 19
  },
  {
    "id": 3316,
    "name": "EL MAGHARIA",
    "latitude": "36.7313349",
    "longitude": "3.1085569",
    "wilaya_id": 16
  },
  {
    "id": 3317,
    "name": "BEN CHOUD",
    "latitude": "36.8641433",
    "longitude": "3.8801313",
    "wilaya_id": 35
  },
  {
    "id": 3318,
    "name": "RAHMANIA",
    "latitude": "36.6805367",
    "longitude": "2.9064684",
    "wilaya_id": 16
  },
  {
    "id": 3319,
    "name": "ARIB",
    "latitude": "36.2919441",
    "longitude": "2.0683322",
    "wilaya_id": 44
  },
  {
    "id": 3320,
    "name": "DEUX BASSINS",
    "latitude": "36.4694702",
    "longitude": "3.2994088",
    "wilaya_id": 26
  },
  {
    "id": 3321,
    "name": "SIDI MAKHLOUF",
    "latitude": "34.0676281",
    "longitude": "2.8669111",
    "wilaya_id": 3
  },
  {
    "id": 3322,
    "name": "IN GUEZZAM",
    "latitude": "19.5696707",
    "longitude": "5.7725744",
    "wilaya_id": 54
  },
  {
    "id": 3323,
    "name": "AIN EL HADJAR",
    "latitude": "34.7612263",
    "longitude": "0.1442892",
    "wilaya_id": 20
  },
  {
    "id": 3324,
    "name": "ZELFANA",
    "latitude": "32.3936629",
    "longitude": "4.2268033",
    "wilaya_id": 47
  },
  {
    "id": 3325,
    "name": "DJERMA",
    "latitude": "35.6844999",
    "longitude": "6.2909032",
    "wilaya_id": 5
  },
  {
    "id": 3326,
    "name": "OULED MIMOUN",
    "latitude": "34.904794",
    "longitude": "-1.0281674",
    "wilaya_id": 13
  },
  {
    "id": 3327,
    "name": "AIN DJASSER",
    "latitude": "35.8596869",
    "longitude": "6.0012835",
    "wilaya_id": 5
  },
  {
    "id": 3328,
    "name": "AIN LAHDJAR",
    "latitude": "35.9404062",
    "longitude": "5.5408781",
    "wilaya_id": 19
  },
  {
    "id": 3329,
    "name": "EL ANCER",
    "latitude": "36.7941634",
    "longitude": "6.1770786",
    "wilaya_id": 18
  },
  {
    "id": 3330,
    "name": "TIXTER",
    "latitude": "36.0291572",
    "longitude": "5.1117578",
    "wilaya_id": 34
  },
  {
    "id": 3331,
    "name": "MELLAKOU",
    "latitude": "35.2380662",
    "longitude": "1.2807715",
    "wilaya_id": 14
  },
  {
    "id": 3332,
    "name": "CHEBLI",
    "latitude": "36.5774573",
    "longitude": "3.0090176",
    "wilaya_id": 9
  },
  {
    "id": 3333,
    "name": "BOUMEDFAA",
    "latitude": "36.3700317",
    "longitude": "2.4732963",
    "wilaya_id": 44
  },
  {
    "id": 3334,
    "name": "EL ASSAFIA",
    "latitude": "33.9018768",
    "longitude": "3.0953642",
    "wilaya_id": 3
  },
  {
    "id": 3335,
    "name": "LAZHARIA",
    "latitude": "35.957524",
    "longitude": "1.567879",
    "wilaya_id": 38
  },
  {
    "id": 3336,
    "name": "BABOR",
    "latitude": "36.4898622",
    "longitude": "5.5378293",
    "wilaya_id": 19
  },
  {
    "id": 3337,
    "name": "DRAA KEBILA",
    "latitude": "36.4223095",
    "longitude": "4.9977651",
    "wilaya_id": 19
  },
  {
    "id": 3338,
    "name": "EL KARMA",
    "latitude": "35.6124273",
    "longitude": "-0.5787918",
    "wilaya_id": 31
  },
  {
    "id": 3339,
    "name": "YAHIA BENI GUECHA",
    "latitude": "36.3907169",
    "longitude": "5.9940093",
    "wilaya_id": 43
  },
  {
    "id": 3340,
    "name": "AIN EL ARBAA",
    "latitude": "35.4058264",
    "longitude": "-0.8811572",
    "wilaya_id": 46
  },
  {
    "id": 3341,
    "name": "OUED FRAGHA",
    "latitude": "36.5384712",
    "longitude": "7.6854268",
    "wilaya_id": 24
  },
  {
    "id": 3342,
    "name": "GUIDJEL",
    "latitude": "36.081278",
    "longitude": "5.4920263",
    "wilaya_id": 19
  },
  {
    "id": 3343,
    "name": "NACIRIA",
    "latitude": "36.7471933",
    "longitude": "3.836858",
    "wilaya_id": 35
  },
  {
    "id": 3344,
    "name": "BALIDAT AMEUR",
    "latitude": "32.9417127",
    "longitude": "5.9744271",
    "wilaya_id": 55
  },
  {
    "id": 3345,
    "name": "ZEGHAIA",
    "latitude": "36.480762",
    "longitude": "6.1673842",
    "wilaya_id": 43
  },
  {
    "id": 3346,
    "name": "DJINET",
    "latitude": "36.8779905",
    "longitude": "3.720138",
    "wilaya_id": 35
  },
  {
    "id": 3347,
    "name": "OUED DJER",
    "latitude": "36.4268459",
    "longitude": "2.5605348",
    "wilaya_id": 9
  },
  {
    "id": 3348,
    "name": "TREAT",
    "latitude": "36.9331905",
    "longitude": "7.4031122",
    "wilaya_id": 23
  },
  {
    "id": 3349,
    "name": "EL HAMEL",
    "latitude": "35.1308796",
    "longitude": "4.0879174",
    "wilaya_id": 28
  },
  {
    "id": 3350,
    "name": "MERAHNA",
    "latitude": "36.1978548",
    "longitude": "8.1556144",
    "wilaya_id": 41
  },
  {
    "id": 3351,
    "name": "SIDI ABDERRAHMANE",
    "latitude": "36.4791747",
    "longitude": "1.1257586",
    "wilaya_id": 2
  },
  {
    "id": 3352,
    "name": "ARRIS",
    "latitude": "35.258514",
    "longitude": "6.3449818",
    "wilaya_id": 5
  },
  {
    "id": 3353,
    "name": "BRANIS",
    "latitude": "34.9947631",
    "longitude": "5.772251",
    "wilaya_id": 7
  },
  {
    "id": 3354,
    "name": "CHERIA",
    "latitude": "35.2706778",
    "longitude": "7.7527115",
    "wilaya_id": 12
  },
  {
    "id": 3355,
    "name": "BENI TAMOU",
    "latitude": "36.5374705",
    "longitude": "2.8206529",
    "wilaya_id": 9
  },
  {
    "id": 3356,
    "name": "SOUK EL HAD",
    "latitude": "36.6919747",
    "longitude": "3.5915607",
    "wilaya_id": 35
  },
  {
    "id": 3357,
    "name": "SOUK NAAMANE",
    "latitude": "35.8953079",
    "longitude": "6.3925749",
    "wilaya_id": 4
  },
  {
    "id": 3358,
    "name": "CHETAIBI",
    "latitude": "37.0119395",
    "longitude": "7.4025879",
    "wilaya_id": 23
  },
  {
    "id": 3359,
    "name": "MENAA",
    "latitude": "35.1448839",
    "longitude": "3.6955175",
    "wilaya_id": 28
  },
  {
    "id": 3360,
    "name": "GRAREM GOUGA",
    "latitude": "36.5152648",
    "longitude": "6.3261322",
    "wilaya_id": 43
  },
  {
    "id": 3361,
    "name": "CHABET EL AMEUR",
    "latitude": "36.6374131",
    "longitude": "3.6957712",
    "wilaya_id": 35
  },
  {
    "id": 3362,
    "name": "CHERCHEL",
    "latitude": "36.6075021",
    "longitude": "2.1901982",
    "wilaya_id": 42
  },
  {
    "id": 3363,
    "name": "TASSALA LEMTAI",
    "latitude": "36.5693012",
    "longitude": "5.9884624",
    "wilaya_id": 43
  },
  {
    "id": 3364,
    "name": "MAAFA",
    "latitude": "35.2663121",
    "longitude": "5.9018467",
    "wilaya_id": 5
  },
  {
    "id": 3365,
    "name": "LICHANA",
    "latitude": "34.7251766",
    "longitude": "5.4356505",
    "wilaya_id": 7
  },
  {
    "id": 3366,
    "name": "BELIMOUR",
    "latitude": "35.9800721",
    "longitude": "4.8818115",
    "wilaya_id": 34
  },
  {
    "id": 3367,
    "name": "MEDROUSSA",
    "latitude": "35.1830659",
    "longitude": "1.1552709",
    "wilaya_id": 14
  },
  {
    "id": 3368,
    "name": "BERRICHE",
    "latitude": "35.917798",
    "longitude": "7.3769813",
    "wilaya_id": 4
  },
  {
    "id": 3369,
    "name": "OUED TLELAT",
    "latitude": "35.5519239",
    "longitude": "-0.4522604",
    "wilaya_id": 31
  },
  {
    "id": 3370,
    "name": "MIH OUENSA",
    "latitude": "33.1995461",
    "longitude": "6.7096899",
    "wilaya_id": 39
  },
  {
    "id": 3371,
    "name": "EL GHROUS",
    "latitude": "34.7054162",
    "longitude": "5.2854921",
    "wilaya_id": 7
  },
  {
    "id": 3372,
    "name": "EL AOUANA",
    "latitude": "36.7716565",
    "longitude": "5.6114699",
    "wilaya_id": 18
  },
  {
    "id": 3373,
    "name": "OUED NINI",
    "latitude": "35.5721271",
    "longitude": "7.3490145",
    "wilaya_id": 4
  },
  {
    "id": 3374,
    "name": "BENI ZIKI",
    "latitude": "36.565846",
    "longitude": "4.5068005",
    "wilaya_id": 15
  },
  {
    "id": 3375,
    "name": "MAKOUDA",
    "latitude": "36.7919734",
    "longitude": "4.0624221",
    "wilaya_id": 15
  },
  {
    "id": 3376,
    "name": "CHAIBA",
    "latitude": "36.6095154",
    "longitude": "2.7330752",
    "wilaya_id": 42
  },
  {
    "id": 3377,
    "name": "HIDOUSSA",
    "latitude": "35.5283105",
    "longitude": "5.9188903",
    "wilaya_id": 5
  },
  {
    "id": 3378,
    "name": "TERNI BENI HEDIEL",
    "latitude": "34.7956632",
    "longitude": "-1.3553955",
    "wilaya_id": 13
  },
  {
    "id": 3379,
    "name": "OULED SIDI BRAHIM",
    "latitude": "35.3510378",
    "longitude": "4.1387382",
    "wilaya_id": 28
  },
  {
    "id": 3380,
    "name": "SIDI SAFI",
    "latitude": "35.279924",
    "longitude": "-1.3137781",
    "wilaya_id": 46
  },
  {
    "id": 3381,
    "name": "OUED CHAABA",
    "latitude": "35.5238426",
    "longitude": "6.0346692",
    "wilaya_id": 5
  },
  {
    "id": 3382,
    "name": "MOULAY LARBI",
    "latitude": "34.5952995",
    "longitude": "-0.1984171",
    "wilaya_id": 20
  },
  {
    "id": 3383,
    "name": "BOUARFA",
    "latitude": "36.4638905",
    "longitude": "2.8126394",
    "wilaya_id": 9
  },
  {
    "id": 3384,
    "name": "BORDJ ZEMOURA",
    "latitude": "36.2690807",
    "longitude": "4.8402663",
    "wilaya_id": 34
  },
  {
    "id": 3385,
    "name": "TAMLOUKA",
    "latitude": "36.1592954",
    "longitude": "7.1399798",
    "wilaya_id": 24
  },
  {
    "id": 3386,
    "name": "ZEMMOURI",
    "latitude": "36.7864064",
    "longitude": "3.6012209",
    "wilaya_id": 35
  },
  {
    "id": 3387,
    "name": "EL MADHER",
    "latitude": "35.6258746",
    "longitude": "6.3706722",
    "wilaya_id": 5
  },
  {
    "id": 3388,
    "name": "GHILASSA",
    "latitude": "35.847568",
    "longitude": "4.9083006",
    "wilaya_id": 34
  },
  {
    "id": 3389,
    "name": "BOUHAMZA",
    "latitude": "36.4450868",
    "longitude": "4.6855035",
    "wilaya_id": 6
  },
  {
    "id": 3390,
    "name": "BERHOUM",
    "latitude": "35.654979",
    "longitude": "5.0344441",
    "wilaya_id": 28
  },
  {
    "id": 3391,
    "name": "EL GHEDIR",
    "latitude": "36.687176",
    "longitude": "6.9771347",
    "wilaya_id": 21
  },
  {
    "id": 3392,
    "name": "SIDI BOUBEKEUR",
    "latitude": "34.9993322",
    "longitude": "-0.0258721",
    "wilaya_id": 20
  },
  {
    "id": 3393,
    "name": "LARBAA",
    "latitude": "35.9115725",
    "longitude": "1.4627421",
    "wilaya_id": 38
  },
  {
    "id": 3394,
    "name": "OUED EL BERDI",
    "latitude": "36.2885851",
    "longitude": "3.9180743",
    "wilaya_id": 10
  },
  {
    "id": 3395,
    "name": "MAADID",
    "latitude": "35.7974466",
    "longitude": "4.7564949",
    "wilaya_id": 28
  },
  {
    "id": 3396,
    "name": "SIDI MEROUANE",
    "latitude": "36.5189042",
    "longitude": "6.2603141",
    "wilaya_id": 43
  },
  {
    "id": 3397,
    "name": "OUM EL ADHAIM",
    "latitude": "36.0283173",
    "longitude": "7.6041509",
    "wilaya_id": 41
  },
  {
    "id": 3398,
    "name": "TAOURGA",
    "latitude": "36.7935601",
    "longitude": "3.9500124",
    "wilaya_id": 35
  },
  {
    "id": 3399,
    "name": "ASFOUR",
    "latitude": "36.6450055",
    "longitude": "7.9718849",
    "wilaya_id": 36
  },
  {
    "id": 3400,
    "name": "AIN TASSERA",
    "latitude": "36.0179598",
    "longitude": "4.9695974",
    "wilaya_id": 34
  },
  {
    "id": 3401,
    "name": "GOURAYA",
    "latitude": "36.5720127",
    "longitude": "1.9057978",
    "wilaya_id": 42
  },
  {
    "id": 3402,
    "name": "AIN ZAOUIA",
    "latitude": "36.5502351",
    "longitude": "3.8948674",
    "wilaya_id": 15
  },
  {
    "id": 3403,
    "name": "OULED RIAH",
    "latitude": "34.9610292",
    "longitude": "-1.4980498",
    "wilaya_id": 13
  },
  {
    "id": 3404,
    "name": "AIN EL KEBIRA",
    "latitude": "36.3648446",
    "longitude": "5.5069356",
    "wilaya_id": 19
  },
  {
    "id": 3405,
    "name": "SOBHA",
    "latitude": "36.1064562",
    "longitude": "1.0312961",
    "wilaya_id": 2
  },
  {
    "id": 3406,
    "name": "TABELBALA",
    "latitude": "29.4054154",
    "longitude": "-3.2553664",
    "wilaya_id": 52
  },
  {
    "id": 3407,
    "name": "KHOUBANA",
    "latitude": "35.3244533",
    "longitude": "4.4831929",
    "wilaya_id": 28
  },
  {
    "id": 3408,
    "name": "AIN ZERGA",
    "latitude": "35.6480159",
    "longitude": "8.2603257",
    "wilaya_id": 12
  },
  {
    "id": 3409,
    "name": "ZANA EL BEIDA",
    "latitude": "35.7950928",
    "longitude": "6.10481",
    "wilaya_id": 5
  },
  {
    "id": 3410,
    "name": "TINEBDAR",
    "latitude": "36.6232839",
    "longitude": "4.6781911",
    "wilaya_id": 6
  },
  {
    "id": 3411,
    "name": "AIN LECHIAKH",
    "latitude": "36.1220983",
    "longitude": "2.4054963",
    "wilaya_id": 44
  },
  {
    "id": 3412,
    "name": "OULED SI SLIMANE",
    "latitude": "35.61043",
    "longitude": "5.6322042",
    "wilaya_id": 5
  },
  {
    "id": 3413,
    "name": "LAHLEF",
    "latitude": "35.8932512",
    "longitude": "0.9795402",
    "wilaya_id": 48
  },
  {
    "id": 3414,
    "name": "OUED CHOULY",
    "latitude": "34.8749626",
    "longitude": "-1.1341145",
    "wilaya_id": 13
  },
  {
    "id": 3415,
    "name": "BOUAICHE",
    "latitude": "35.5538128",
    "longitude": "2.358512",
    "wilaya_id": 26
  },
  {
    "id": 3416,
    "name": "BOUSKENE",
    "latitude": "36.1951317",
    "longitude": "3.2157348",
    "wilaya_id": 26
  },
  {
    "id": 3417,
    "name": "KHADRA",
    "latitude": "36.2541082",
    "longitude": "0.5747888",
    "wilaya_id": 27
  },
  {
    "id": 3418,
    "name": "MEKLA",
    "latitude": "36.6876391",
    "longitude": "4.2681185",
    "wilaya_id": 15
  },
  {
    "id": 3419,
    "name": "CHENIGUEL",
    "latitude": "35.9234302",
    "longitude": "3.5668505",
    "wilaya_id": 26
  },
  {
    "id": 3420,
    "name": "KENDIRA",
    "latitude": "36.5574534",
    "longitude": "5.0215287",
    "wilaya_id": 6
  },
  {
    "id": 3421,
    "name": "OULED SELLAM",
    "latitude": "35.828613",
    "longitude": "5.8830702",
    "wilaya_id": 5
  },
  {
    "id": 3422,
    "name": "MEDJEZ AMAR",
    "latitude": "36.4816296",
    "longitude": "7.3214002",
    "wilaya_id": 24
  },
  {
    "id": 3423,
    "name": "OULED FADEL",
    "latitude": "35.5558054",
    "longitude": "6.6785087",
    "wilaya_id": 5
  },
  {
    "id": 3424,
    "name": "MEKHATRIA",
    "latitude": "36.3025793",
    "longitude": "1.9597495",
    "wilaya_id": 44
  },
  {
    "id": 3425,
    "name": "OUED EL DJEMAA",
    "latitude": "35.7959797",
    "longitude": "0.6816434",
    "wilaya_id": 48
  },
  {
    "id": 3426,
    "name": "AOUF",
    "latitude": "35.1251194",
    "longitude": "0.3578556",
    "wilaya_id": 29
  },
  {
    "id": 3427,
    "name": "MOUDJEBEUR",
    "latitude": "35.9534707",
    "longitude": "2.8254889",
    "wilaya_id": 26
  },
  {
    "id": 3428,
    "name": "HANNACHA",
    "latitude": "36.1895198",
    "longitude": "2.5666083",
    "wilaya_id": 26
  },
  {
    "id": 3429,
    "name": "BOUZINA",
    "latitude": "35.2648362",
    "longitude": "6.0988647",
    "wilaya_id": 5
  },
  {
    "id": 3430,
    "name": "SIDI RACHED",
    "latitude": "36.5625526",
    "longitude": "2.5324546",
    "wilaya_id": 42
  },
  {
    "id": 3431,
    "name": "ILLIZI",
    "latitude": "26.504191",
    "longitude": "8.479926",
    "wilaya_id": 33
  },
  {
    "id": 3432,
    "name": "EL HAMDANIA",
    "latitude": "36.3620816",
    "longitude": "2.767105",
    "wilaya_id": 26
  },
  {
    "id": 3433,
    "name": "AIN TALLOUT",
    "latitude": "34.9299907",
    "longitude": "-0.9542742",
    "wilaya_id": 13
  },
  {
    "id": 3434,
    "name": "MESRA",
    "latitude": "35.8372794",
    "longitude": "0.1693314",
    "wilaya_id": 27
  },
  {
    "id": 3435,
    "name": "BOUAICHOUNE",
    "latitude": "36.1465322",
    "longitude": "2.6613294",
    "wilaya_id": 26
  },
  {
    "id": 3436,
    "name": "TAOURIRT IGHIL",
    "latitude": "36.6995991",
    "longitude": "4.6977077",
    "wilaya_id": 6
  },
  {
    "id": 3437,
    "name": "KHETTOUTI SED EL DJIR",
    "latitude": "35.6790741",
    "longitude": "4.2599517",
    "wilaya_id": 28
  },
  {
    "id": 3438,
    "name": "TAGHIT",
    "latitude": "30.9170611",
    "longitude": "-2.0294754",
    "wilaya_id": 8
  },
  {
    "id": 3439,
    "name": "ECH CHAIBA",
    "latitude": "34.8407894",
    "longitude": "4.9234598",
    "wilaya_id": 50
  },
  {
    "id": 3440,
    "name": "TIZI",
    "latitude": "35.3161396",
    "longitude": "0.0739093",
    "wilaya_id": 29
  },