COMMUNE,WILAYA,LATITUDE,LONGITUDE
REMCHI,TLEMCEN,35.0617268,-1.4318326
BENI SAF,AIN-TEMOUCHENT,35.3025458,-1.382036
OUED EL ALLEUG,BLIDA,36.5558374,2.7896358
BOUDJIMA,TIZI-OUZOU,36.8047072,4.14884
EL HAMMA,KHENCHELA,35.4716036,7.0856456
AIN MLILA,OUM EL-BOUAGHI,36.0375444,6.570986
DRAA BEN KHEDDA,TIZI-OUZOU,36.7333317,3.9587692
OUED ZENATI,GUELMA,36.3130761,7.164528
SOUK EL THENINE,BEJAIA,36.6251894,5.3365523
OUED RHIOU,RELIZANE,35.9607535,0.9180664
RAS EL OUED,BORDJ-BOU-ARRERIDJ,35.9445677,5.0319396
TIZI OUZOU,TIZI-OUZOU,36.7137843,4.0493919
BENACEUR,TOUGGOURT,33.1105213,6.4421107
BIRTOUTA,ALGER,36.6449884,2.9985533
SIDI HOSNI,TIARET,35.5288935,1.5065668
TENES,CHLEF,36.5080818,1.3078072
ZERALDA,ALGER,36.7120392,2.8407894
BORDJ EL EMIR ABDELKADER,TISSEMSILT,35.8222005,2.23692
HASSI EL GHELLA,AIN-TEMOUCHENT,35.4548282,-1.0546776
KOUBA,ALGER,36.7323557,3.0874783
MAGHNIA,TLEMCEN,34.8498681,-1.7296796
EL KHROUB,CONSTANTINE,36.2603681,6.6970014
YABOUS,KHENCHELA,35.407649,6.6416748
EL MILIA,JIJEL,36.7514104,6.2744614
SEMAOUNE,BEJAIA,36.5926863,4.5833036
TEBESSA,TEBESSA,35.4035956,8.1212322
BARIKA,BATNA,35.3846699,5.3702215
MSILA,MSILA,35.7087553,4.5371552
EL HADAIEK,SKIKDA,36.8252292,6.8890251
NEKMARIA,MOSTAGANEM,36.1788972,0.6295316
HELIOPOLIS,GUELMA,36.5306233,7.4348224
DJELFA,DJELFA,34.671359,3.254037
EL ADJIBA,BOUIRA,36.3293456,4.1586858
DOUERA,ALGER,36.6694089,2.9421031
EL HASSASNA,SAIDA,34.7513368,0.3396981
SOUGUEUR,TIARET,35.1856739,1.4960929
AIN SMARA,CONSTANTINE,36.266467,6.4969576
BITAM,BATNA,35.3077781,5.3740815
CHEMORA,BATNA,35.6298861,6.6056111
OUM EL BOUAGHI,OUM EL-BOUAGHI,35.8687758,7.1150645
OULED ABBES,CHLEF,36.2147686,1.4860684
BOUSAADA,MSILA,35.2133123,4.1809702
SEDDOUK,BEJAIA,36.5472337,4.6894642
BOUGAA,SETIF,36.3322264,5.0895897
DELY BRAHIM,ALGER,36.7516098,2.9825732
AIN TAYA,ALGER,36.7912902,3.2926194
LARDJEM,TISSEMSILT,35.7480295,1.5480772
BEJAIA,BEJAIA,36.7511783,5.0643687
THENIA,BOUMERDES,36.724986,3.556935
IGLI,BÉNI ABBÈS,30.4528493,-2.2908264
BIRINE,DJELFA,35.6337386,3.2244016
SIDI CHAMI,ORAN,35.6579939,-0.5220152
MASCARA,MASCARA,35.394081,0.1379568
HUSSEIN DEY,ALGER,36.7429388,3.094027
MOSTAGANEM,MOSTAGANEM,35.928808,0.089978
OULED DERRADJ,MSILA,35.6721703,4.7876916
OULED KHALED,SAIDA,34.9220728,0.1765338
KHENCHELA,KHENCHELA,35.430154,7.145711
MEDEA,MEDEA,36.265344,2.766957
ANNABA,ANNABA,36.8982165,7.7549272
HAIZER,BOUIRA,36.3979925,3.9994448
AIN BEIDA,OUM EL-BOUAGHI,35.7952839,7.3894346
OUED CHEHAM,GUELMA,36.3526366,7.7909725
AIN EL HADJEL,MSILA,35.6179388,3.8654197
TIGHENNIF,MASCARA,35.4143144,0.3292328
SIDI FREDJ,SOUK-AHRAS,36.1530958,8.1952696
AHMER EL AIN,TIPAZA,36.5012961,2.5716532
SIG,MASCARA,35.5305119,-0.1906822
TIARET,TIARET,35.3661448,1.3194687
KHEMIS EL KHECHNA,BOUMERDES,36.6505384,3.3317211
IBN ZIAD,CONSTANTINE,36.3829267,6.4720589
AIN-DEFLA,AIN-DEFLA,36.2657178,1.9701347
HADJOUT,TIPAZA,36.5121198,2.4142888
TLEMCEN,TLEMCEN,34.881789,-1.316699
KHELIL,BORDJ-BOU-ARRERIDJ,36.2362029,5.0157162
EL FEDJOUDJ,GUELMA,36.5042115,7.4013726
ECHATT,EL-TARF,36.8303087,7.8727514
NAAMA,NAAMA,33.2647342,-0.3110393
EL MALAH,AIN-TEMOUCHENT,35.3899817,-1.0959775
EL AMRIA,AIN-TEMOUCHENT,35.5248267,-1.0145245
BORDJ BOU ARRERIDJ,BORDJ-BOU-ARRERIDJ,36.0741121,4.7613476
HAMMEDI,BOUMERDES,36.6800253,3.2596049
SKIKDA,SKIKDA,36.8801317,6.9077363
EL-TARF,EL-TARF,36.7667186,8.3169418
AIN BOUCIF,MEDEA,35.8354145,3.1577821
BLIDA,BLIDA,36.4705658,2.8274937
AIN EL IBEL,DJELFA,34.3550616,3.2238301
BERROUAGHIA,MEDEA,36.1352805,2.9172738
OULED FAYET,ALGER,36.7355249,2.9509064
OUED SMAR,ALGER,36.7044199,3.1681561
TISSEMSILT,TISSEMSILT,35.604813,1.810476
FRENDA,TIARET,35.0655965,1.0566092
CONSTANTINE,CONSTANTINE,36.3641642,6.6084281
BIR CHOUHADA,OUM EL-BOUAGHI,35.9007352,6.2454458
TIPAZA,TIPAZA,36.5918179,2.4482509
MLILI,BISKRA,34.5760922,5.6243246
MAHELMA,ALGER,36.6823629,2.87765
TABLAT,MEDEA,36.4127653,3.3097893
MECHRIA,NAAMA,33.5428415,-0.2750524
CHELLALAT EL ADHAOURA,MEDEA,35.9396178,3.4140092
EL OURICIA,SETIF,36.2837674,5.4095661
BOLOGHINE IBN ZIRI,ALGER,36.8099201,2.9788282
BORDJ EL BAHRI,ALGER,36.7906241,3.2501614
SIDI ALI,MOSTAGANEM,36.0997945,0.4206226
HASSI BAHBAH,DJELFA,35.0747536,3.0270488
BOUHADJAR,EL-TARF,36.5034174,8.1060862
BORDJ GHDIR,BORDJ-BOU-ARRERIDJ,35.8991893,4.899182
TSABIT,ADRAR,28.3509683,-0.2161001
AIN TURK,ORAN,35.7400353,-0.7539496
GHASSIRA,BATNA,35.0970768,6.2228071
BABA HASSEN,ALGER,36.6946975,2.9735467
GUELAAT BOUSBAA,GUELMA,36.549069,7.4894268
BATNA,BATNA,35.5548235,6.1768526
JIJEL,JIJEL,36.8167305,5.771494
GUELMA,GUELMA,36.465084,7.430647
ORAN,ORAN,35.7044415,-0.6502981
MILIANA,AIN-DEFLA,36.3047698,2.226821
BAGHLIA,BOUMERDES,36.7959552,3.8675211
OUM DROU,CHLEF,36.1966757,1.3913824
BORDJ EL KIFFAN,ALGER,36.747273,3.1908953
HASSI BEN OKBA,ORAN,35.726419,-0.4671047
AIN KERCHA,OUM EL-BOUAGHI,35.9233662,6.7022898
BAB EL ASSA,TLEMCEN,34.9661057,-2.0317999
AIN BABOUCHE,OUM EL-BOUAGHI,35.9806479,7.1591673
REGHAIA,ALGER,36.7387813,3.3421179
EL BAYADH,EL-BAYADH,33.684319,1.0182453
EL KALA,EL-TARF,36.8961359,8.4430673
SENDJAS,CHLEF,36.0396655,1.4552069
OUED EL ANEB,ANNABA,36.9345945,7.5212403
OUED ESSALEM,RELIZANE,35.5798979,0.9252497
ES SENIA,ORAN,35.6500999,-0.6241804
SIDI LAHCENE,SIDI-BELABBES,35.0591,-0.6223
BEN FREHA,ORAN,35.6937209,-0.4186546
BIR MOURAD RAIS,ALGER,36.7393938,3.0500748
SOUK-AHRAS,SOUK-AHRAS,36.282865,7.9537896
AZEFFOUN,TIZI-OUZOU,36.8930725,4.4203917
BOUROUBA,ALGER,36.7138232,3.1125789
SETIF,SETIF,36.1893494,5.4046876
RAIS HAMIDOU,ALGER,36.8174128,3.0114701
BIR KHADEM,ALGER,36.6837401,3.0651964
KSAR EL BOUKHARI,MEDEA,35.8758381,2.7484133
SEDRATA,SOUK-AHRAS,36.1356466,7.53412
EL AFFROUN,BLIDA,36.46975,2.6267421
KSAR EL ABTAL,SETIF,35.9737047,5.2890497
BISKRA,BISKRA,34.8508816,5.729074
SAOULA,ALGER,36.7027016,3.0238994
OUARGLA,OUARGLA,31.9444998,5.3217813
AIN OULMANE,SETIF,35.9231689,5.2959232
BENI ABBES,BÉNI ABBÈS,30.1317426,-2.169031
AIN KHADRA,MSILA,35.5452659,4.9354504
BAGHAI,KHENCHELA,35.5232847,7.1140725
EL HADJAR,ANNABA,36.77505,7.6770911
OUED FODDA,CHLEF,36.185966,1.5347489
EULMA,ANNABA,36.7397345,7.4629454
TOLGA,BISKRA,34.73212,5.3830752
GHARDAIA,GHARDAIA,32.485855,3.677104
HASSI MESSAOUD,OUARGLA,31.6957444,6.0604297
BECHAR,BECHAR,31.616312,-2.21841
FERDJIOUA,MILA,36.4073812,5.9419603
MEURAD,TIPAZA,36.4763774,2.4272954
AIN KERMES,TIARET,34.9288006,1.07039
BIR EL DJIR,ORAN,35.719874,-0.5675118
BARAKI,ALGER,36.669792,3.1001751
SIDI BEN ADDA,AIN-TEMOUCHENT,35.3042768,-1.1815248
SIRAT,MOSTAGANEM,35.731748,0.172439
EL AMIRIA,OUM EL-BOUAGHI,36.0718842,6.905992
ALGER,ALGER,36.7729333,3.0588445
EMDJEZ EDCHICH,SKIKDA,36.7051396,6.8043312
TOUGGOURT,TOUGGOURT,33.1048574,6.0667276
SAIDA,SAIDA,34.8302067,0.1502692
DJAMAA,EL-OUED,36.7841312,3.0595361
RELIZANE,RELIZANE,35.7381193,0.5547673
TIMGAD,BATNA,35.4836328,6.4668121
OULED BEN ABDELKADER,CHLEF,36.0238897,1.2761855
BENI MERED,BLIDA,36.523526,2.8616102
EL ATTAF,AIN-DEFLA,36.2244328,1.6725159
BOGHAR,MEDEA,35.910616,2.7173772
ILOULA OUMALOU,TIZI-OUZOU,36.5649995,4.4487366
EL AZIZIA,MEDEA,36.316014,3.4915483
OUED SEGUEN,MILA,36.1811194,6.3883093
TALA HAMZA,BEJAIA,36.7029253,5.0394177
LAGHOUAT,LAGHOUAT,33.8063451,2.8802635
AIN LALOUI,BOUIRA,36.3208019,3.7485441
OUED TAGA,BATNA,35.4323373,6.4146079
EL MATMAR,RELIZANE,35.7309261,0.4611475
HAMMAM BOUGHRARA,TLEMCEN,34.8936813,-1.6382574
BOUDOUAOU,BOUMERDES,36.727203,3.408382
BOUATI MAHMOUD,GUELMA,36.6088533,7.3480243
TKOUT,BATNA,35.1403816,6.3085503
CORSO,BOUMERDES,36.7547423,3.4433833
BOUCHRAHIL,MEDEA,36.274231,3.19346
EL BOUNI,ANNABA,36.8548275,7.7413708
BEB EZZOUAR,ALGER,36.7249185,3.199012
GUERROUAOU,BLIDA,36.5264595,2.886115
TAZOULT,BATNA,35.4860091,6.2536097
OUED KORICHE,ALGER,36.7857731,3.0438543
STAOUELI,ALGER,36.7532755,2.8881822
THENIET EL HAD,TISSEMSILT,35.8739691,2.0240828
LARBAA,BLIDA,36.5650816,3.1540861
OUED SLY,CHLEF,36.101565,1.1995738
EL AOUINET,TEBESSA,35.8628373,7.8888473
DJIDIOUIA,RELIZANE,35.9336653,0.8266434
ICHEMOUL,BATNA,35.3095106,6.5100105
AIN KECHRA,SKIKDA,36.801318,6.4610872
KSAR CHELLALA,TIARET,35.2143453,2.3129403
BENI OULBANE,SKIKDA,36.6439118,6.6281274
CHETOUANE,TLEMCEN,34.9207591,-1.2910642
HAMMA BOUZIANE,CONSTANTINE,36.4248981,6.6008903
YELLEL,RELIZANE,35.7217352,0.3571077
MENACEUR,TIPAZA,36.5000414,2.2236309
AIN TINE,MILA,36.4155335,6.3282212
BIR EL ARCH,SETIF,36.1303925,5.8392064
CHAHNA,JIJEL,36.6586669,5.9442005
EL OUED,EL-OUED,33.3611531,6.8606693
CASBAH,ALGER,36.7844706,3.0578458
BOUZGUEN,TIZI-OUZOU,36.6179239,4.4761469
MEZLOUG,SETIF,36.1074201,5.3371932
FRIKAT,TIZI-OUZOU,36.5133532,3.8856598
BENI OUARTILANE,SETIF,36.4422585,4.8557425
HOUARI BOUMEDIENE,GUELMA,36.4155048,7.2870821
BOUKADIR,CHLEF,36.0650746,1.1278681
AIN TURK,BOUIRA,36.3932061,3.8246043
ES SEBT,SKIKDA,36.6195945,7.0645888
CHLEF,CHLEF,36.164592,1.331499
AOKAS,BEJAIA,36.6376518,5.2453122
AIN ARNAT,SETIF,36.1849367,5.3144869
MOHAMMADIA,MASCARA,35.5892003,0.0670398
TIGZIRT,TIZI-OUZOU,36.8926614,4.126179
AIN EL ASSEL,EL-TARF,36.7865309,8.3825736
CHAABET EL HAM,AIN-TEMOUCHENT,35.3367018,-1.1020618
EMIR ABDELKADER,JIJEL,36.7546904,5.8443228
KENADSA,BECHAR,31.5545321,-2.432661
DAR EL BEIDA,ALGER,36.7149768,3.2094611
BENI BACHIR,SKIKDA,36.774669,6.9376557
BEIDHA BORDJ,SETIF,35.837695,5.6318487
CHBAITA MOKHTAR,EL-TARF,36.755843,7.7407291
AIN SEFRA,NAAMA,32.7568151,-0.577859
SIDI LAKHDAR,AIN-DEFLA,36.2656357,2.1617628
SIDI AISSA,MSILA,35.8838359,3.7803723
BENI SLIMANE,MEDEA,36.230723,3.3104153
SIDI DAOUD,BOUMERDES,36.8567267,3.8581586
OULED YAICH,BLIDA,36.4970451,2.8610493
TINDOUF,TINDOUF,27.6718402,-8.1397297
EL KARIMIA,CHLEF,36.1121742,1.5534446
AMALOU,BEJAIA,36.4774607,4.63266
LAKHDARIA,BOUIRA,36.5644827,3.5967523
ABOU EL HASSEN,CHLEF,36.4145938,1.1938241
EL MADANIA,ALGER,36.7420067,3.0665715
BOUIRA,BOUIRA,36.3739012,3.9007007
LABIODH MEDJADJA,CHLEF,36.2507309,1.3919112
EL GUETTAR,RELIZANE,36.0879043,0.8168474
TAHER,JIJEL,36.7712912,5.897589
OULED YAICH,RELIZANE,35.8266939,0.9631855
DJELIDA,AIN-DEFLA,36.2027341,2.0795157
BENI DERGOUN,RELIZANE,35.7933416,0.801238
NEDROMA,TLEMCEN,35.0107602,-1.74805
MAZOUNA,RELIZANE,36.1262742,0.8801926
TIMIZART,TIZI-OUZOU,36.7978208,4.2461875
MCHEDALLAH,BOUIRA,36.361266,4.2707836
EL BIAR,ALGER,36.7688818,3.030651
BENI MOUHLI,SETIF,36.5132135,4.8940032
KAIS,KHENCHELA,35.4956337,6.9235555
AIN SOLTANE,AIN-DEFLA,36.2483226,2.2973227
DOUAOUDA,TIPAZA,36.6737396,2.7900902
NEZLA,TOUGGOURT,33.0960188,6.0630525
BESBES,EL-TARF,36.7008806,7.8454765
CHERAGA,ALGER,36.7669269,2.9602571
EL IDRISSIA,DJELFA,34.4486677,2.5312873
ADRAR,ADRAR,27.873203,-0.2876021
METLILI,GHARDAIA,32.2605169,3.6259116
CHETTIA,CHLEF,36.1929178,1.2491044
SIGUS,OUM EL-BOUAGHI,36.1239401,6.7854947
EL GHOMRI,MASCARA,35.6883106,0.2069806
DJEBEL MESSAAD,MSILA,34.9930304,4.0907504
BAYADHA,EL-OUED,33.3278311,6.8885733
SI MUSTAPHA,BOUMERDES,36.7336375,3.6253479
COLLO,SKIKDA,37.0065806,6.5690345
AIN EL MELH,MSILA,34.8414309,4.1731521
CHORFA,BOUIRA,36.3596242,4.3236528
AIT BOUADOU,TIZI-OUZOU,36.5032098,4.0612545
OULED SLAMA,BLIDA,36.5534582,3.1153628
SOUK EL TENINE,TIZI-OUZOU,36.5950832,4.007301
GHASSOUL,EL-BAYADH,33.4924106,1.2592332
DIDOUCHE MOURAD,CONSTANTINE,36.4446761,6.6330811
AIN BENIAN,ALGER,36.8033456,2.9216788
HAD SAHARY,DJELFA,35.3506602,3.3640573
REGUIBA,EL-OUED,33.5653009,6.7114196
OULED SABOR,SETIF,36.1819425,5.5403857
BOUGTOUB,EL-BAYADH,34.0405202,0.087067
AKBOU,BEJAIA,36.4597538,4.5289243
HASSI RMEL,LAGHOUAT,32.9458855,3.273666
EL MOURADIA,ALGER,36.7473392,3.0506705
EL KSEUR,BEJAIA,36.6794351,4.8523757
DRARIA,ALGER,36.7137875,3.0015961
SIDI MHAMED,ALGER,36.7584001,3.0627161
BOUDJELLIL,BEJAIA,36.3498654,4.4141916
DAR CHIOUKH,DJELFA,34.8972924,3.4897249
BETHIOUA,ORAN,35.805837,-0.267936
AIN BESSAM,BOUIRA,36.2929113,3.6735417
ZIGHOUD YOUCEF,CONSTANTINE,36.5292375,6.7336958
GUELLAL,SETIF,36.0339934,5.3387839
ATH MANSOUR,BOUIRA,36.3278259,4.3172601
ROUACHED,MILA,36.4581588,6.0391589
BENI AMRANE,BOUMERDES,36.6678481,3.5918611
SOUR EL GHOZLANE,BOUIRA,36.147376,3.691797
SALAH BEY,SETIF,35.8520786,5.2904883
SABRA,TLEMCEN,34.8260248,-1.530335
HASNAOUA,BORDJ-BOU-ARRERIDJ,36.160523,4.825215
MESSAAD,DJELFA,34.1540811,3.492231
BOUCAID,TISSEMSILT,35.8902865,1.6184584
DRAA EL MIZAN,TIZI-OUZOU,36.5350648,3.8380358
OULED FARES,CHLEF,36.2303457,1.2084133
ZAHANA,MASCARA,35.517616,-0.410225
DAMOUS,TIPAZA,36.5487437,1.7055525
EL EULMA,SETIF,36.1529057,5.6911588
EL GAADA,MASCARA,35.4266234,-0.3129183
SIDI KHELIFA,MILA,36.3635685,6.261707
OULED BRAHIM,MEDEA,36.2437886,2.9350635
LARBATACHE,BOUMERDES,36.6379144,3.3710566
MILA,MILA,36.451941,6.262331
AIN FERAH,MASCARA,35.382409,0.7830416
AIN-TEMOUCHENT,AIN-TEMOUCHENT,35.3048421,-1.1457771
AIN FAKROUN,OUM EL-BOUAGHI,35.9420187,6.8728223
STIDIA,MOSTAGANEM,35.8329584,-0.0035725
STITTEN,EL-BAYADH,33.7563995,1.2241683
SIDI MOUSSA,ALGER,36.6047961,3.088782
CHELGHOUM LAID,MILA,36.1605629,6.1673286
AIN YAGOUT,BATNA,35.7866324,6.418212
BOUFATIS,ORAN,35.6791406,-0.4117684
OULED BOUGHALEM,MOSTAGANEM,36.2918819,0.6967613
SIDI EMBAREK,BORDJ-BOU-ARRERIDJ,36.1181276,4.9041488
HAMADIA,TIARET,35.4584077,1.8723935
SIDI AKKACHA,CHLEF,36.4649578,1.3052519
HENAYA,TLEMCEN,34.9203986,-1.3666038
RAMDANE DJAMEL,SKIKDA,36.7558331,6.9259068
SIDI KADA,MASCARA,35.328545,0.3394322
MANSOURAH,TLEMCEN,34.8733172,-1.3302647
TIZI GHENIF,TIZI-OUZOU,36.5872274,3.7742759
CHIFFA,BLIDA,36.4622287,2.7409097
BOUNOURA,GHARDAIA,32.4856037,3.7049786
TOUDJA,BEJAIA,36.7525317,4.8971215
AIN CHERCHAR,SKIKDA,36.732542,7.2218373
LES EUCALYPTUS,ALGER,36.6567143,3.1472616
KERKERA,SKIKDA,36.9304439,6.5842202
BEN BADIS,CONSTANTINE,36.3166261,6.8349785
BOUTLELIS,ORAN,35.5729399,-0.8998452
AFIR,BOUMERDES,36.8423443,3.9871505
AIN TEDLES,MOSTAGANEM,35.9990969,0.294879
DREAN,EL-TARF,36.6851201,7.7470888
AIT SMAIL,BEJAIA,36.5536461,5.2297301
SOUAHLIA,TLEMCEN,35.0269936,-1.8970124
TEXENNA,JIJEL,36.6605708,5.7909778
ZMALET EMIR ABDELKADER,TIARET,34.894606,2.3099441
BOUMAHRA AHMED,GUELMA,36.4604068,7.5143095
MAHDIA,TIARET,35.4569852,1.741478
TIMIMOUN,TIMIMOUN,29.2605117,0.2285923
ROUIBA,ALGER,36.7364237,3.2826417
GHRISS,MASCARA,35.2481745,0.1604511
MEDIOUNA,RELIZANE,36.1246927,0.7483582
AZZABA,SKIKDA,36.7388133,7.1062378
BORDJ EMIR KHALED,AIN-DEFLA,36.1200332,2.2045088
AIN MERANE,CHLEF,36.175626,0.9723668
ENSIGHA,KHENCHELA,35.3960059,7.1427291
HAMMA,SETIF,35.6845243,5.3862787
HADJADJ,MOSTAGANEM,36.0953239,0.3256437
SIDI MEZGHICHE,SKIKDA,36.7082508,6.7042844
GDYEL,ORAN,35.7824852,-0.4242038
TAMACINE,TOUGGOURT,33.0104035,6.012687
BOUTALEB,SETIF,35.6599645,5.3215529
TEBESBEST,TOUGGOURT,33.115308,6.0818339
OULED SAID,TIMIMOUN,29.4149964,0.2444383
MEDRISSA,TIARET,34.8924859,1.2458048
BAINS ROMAINS,ALGER,36.8137612,2.9712554
TIZI RACHED,TIZI-OUZOU,36.6789662,4.2086164
BELKHEIR,GUELMA,36.4634182,7.4763788
OUADHIA,TIZI-OUZOU,36.555223,4.0867217
OUAMRI,MEDEA,36.2317529,2.56547
TASSALA EL MERDJA,ALGER,36.6272776,2.9448383
HAMADI KROUMA,SKIKDA,36.8441177,6.929106
AIN ABID,CONSTANTINE,36.2489875,6.9419888
OUED EL MA,BATNA,35.6448731,5.9953423
TADJENA,CHLEF,36.3347,1.117922
SEDRAIA,MEDEA,36.2345179,3.520256
AIN BOUZIANE,SKIKDA,36.6043041,6.7323529
GUEMAR,EL-OUED,33.4916197,6.7977914
ABADLA,BECHAR,31.0274839,-2.7104418
DJEMAA BENI HABIBI,JIJEL,36.8010447,6.0932644
ABI YOUCEF,TIZI-OUZOU,36.5384746,4.3438612
ACHAACHA,MOSTAGANEM,36.2445994,0.6355803
AZAZGA,TIZI-OUZOU,36.744738,4.3716399
INZEGMIR,ADRAR,27.046289,-0.0918987
EL FEIDH,BISKRA,34.5005929,6.469635
MEROUANA,BATNA,35.6320555,5.913138
BENI OUARSOUS,TLEMCEN,35.091454,-1.5830375
EL ACHOUR,ALGER,36.7337798,2.9910761
AIN EL HADID,TIARET,35.0554796,0.8856345
MEFTAH,BLIDA,36.620033,3.2229744
TAOURA,SOUK-AHRAS,36.167061,8.042039
BOUTELDJA,EL-TARF,36.7855823,8.1990268
AIN KERMA,ORAN,35.6434497,-0.9765427
MERSA BEN MHIDI,TLEMCEN,35.0817992,-2.2043971
TAMALAHT,TISSEMSILT,35.7999236,1.6058392
SAYADA,MOSTAGANEM,35.9334015,0.13593
BIR MOKADEM,TEBESSA,35.3704032,7.8085014
SEBAINE,TIARET,35.4589895,1.608022
HASSI BOUNIF,ORAN,35.6912811,-0.4979622
AIN TOUILA,KHENCHELA,35.4793115,7.3748585
SIDI AMAR,TIPAZA,36.5424695,2.3059586
BENI RACHED,CHLEF,36.2927757,1.5307566
BOUZAREAH,ALGER,36.7903098,3.0172742
BOUGARA,BLIDA,36.5448652,3.0869346
DOUCEN,OULED DJELLAL,34.5975449,5.1029298
MERS EL KEBIR,ORAN,35.7277218,-0.7085452
OULED DJELLAL,OULED DJELLAL,34.4254103,5.0644342
AIN TOLBA,AIN-TEMOUCHENT,35.2416188,-1.2485001
EL MARSA,ALGER,36.8091281,3.2546039
EL ANCOR,ORAN,35.6848518,-0.8699583
IFERHOUNENE,TIZI-OUZOU,36.5209675,4.3695222
GHAZAOUET,TLEMCEN,35.093863,-1.86322
TIMIAOUINE,BORDJ BADJI MOKHTAR,20.4339578,1.8101265
TAOUGRITE,CHLEF,36.2472325,0.9222293
AOMAR,BOUIRA,36.492393,3.7711939
BERRIANE,GHARDAIA,32.8256322,3.7639006
HAMMAM DHALAA,MSILA,35.9281238,4.3742303
KOLEA,TIPAZA,36.6373657,2.769126
ZITOUNA,SKIKDA,36.9888886,6.4592299
ISSER,BOUMERDES,36.6935557,3.6915459
SIDI AOUN,EL-OUED,33.8391534,6.8108559
MOUZAIA,BLIDA,36.4674416,2.6879953
BOUGUIRAT,MOSTAGANEM,35.7502319,0.2566146
SOUAGUI,MEDEA,36.1255019,3.265101
RAS EL AIOUN,BATNA,35.6758524,5.6515672
TAMANRASSET,TAMANRASSET,22.7859372,5.5291395
IFLISSEN,TIZI-OUZOU,36.8722166,4.2221877
BOUFARIK,BLIDA,36.5755523,2.9128963
AIN TAGHROUT,BORDJ-BOU-ARRERIDJ,36.1445264,5.1132662
EL ANSEUR,BORDJ-BOU-ARRERIDJ,36.0404413,4.8186386
BOU ISMAIL,TIPAZA,36.642758,2.6899362
OUACIF,TIZI-OUZOU,36.523854,4.2049176
EL HARROUCH,SKIKDA,36.6514052,6.8360907
YOUB,SAIDA,34.921672,-0.208054
BOUMERDES,BOUMERDES,36.7590403,3.473102
BOUSSEMGHOUN,EL-BAYADH,32.8081869,0.0635802
MIHOUB,MEDEA,36.3863727,3.4540976
SOUIDANIA,ALGER,36.7085304,2.9116721
HYDRA,ALGER,36.7474259,3.0401832
MARSAT EL HADJADJ,ORAN,35.7948853,-0.1652125
AIN AZAL,SETIF,35.8178542,5.5111895
EL BRAYA,ORAN,35.6291461,-0.5191909
KSOUR,BORDJ-BOU-ARRERIDJ,35.9853662,4.565032
AIN FARES,MASCARA,35.4771078,0.245587
BOUHANIFIA,MASCARA,35.3151029,-0.0486241
HAMMAM BOUHADJAR,AIN-TEMOUCHENT,35.3790296,-0.9711585
BORDJ MENAIEL,BOUMERDES,36.7432364,3.7175665
DAHOUARA,GUELMA,36.3144516,7.7003021
BAB EL OUED,ALGER,36.7907677,3.0530812
TALA IFACENE,SETIF,36.4543155,5.1174953
CHIHANI,EL-TARF,36.6473548,7.7780261
BENI MAOUCHE,BEJAIA,36.4878512,4.787552
AIN MAKHLOUF,GUELMA,36.2427266,7.2491244
AIN EL HADJAR,BOUIRA,36.3402284,3.8095209
KADIRIA,BOUIRA,36.5354385,3.6788401
AIT OUMALOU,TIZI-OUZOU,36.6551697,4.2284389
AIN TOUTA,BATNA,35.3752089,5.894213
KHEMISTI,TIPAZA,36.625387,2.6797524
SIDI BOUSSAID,MASCARA,35.2733671,0.2986103
BENI SNOUS,TLEMCEN,34.6246281,-1.5551957
BECHLOUL,BOUIRA,36.312195,4.0749566
OULED RABAH,JIJEL,36.6216559,6.17312
GUELTAT SIDI SAAD,LAGHOUAT,34.2701253,1.8420835
AGHRIB,TIZI-OUZOU,36.8045313,4.3230947
EL HASSI,BATNA,35.7804723,5.9503611
KHRAISSIA,ALGER,36.6771908,2.9823355
ZENATA,TLEMCEN,34.9894903,-1.4630565
MAOUSSA,MASCARA,35.3782884,0.2457041
SIDI OKBA,BISKRA,34.7497613,5.9107849
OUZERA,MEDEA,36.2526315,2.8466043
MEDJEDEL,MSILA,35.1467087,3.6793899
EL KEURT,MASCARA,35.3809268,0.0921516
CHEKFA,JIJEL,36.7712723,5.9612456
SIDI NAAMANE,MEDEA,36.2147224,3.1265784
FOUKA,TIPAZA,36.6615612,2.7421167
AIT AISSA MIMOUN,TIZI-OUZOU,36.7506544,4.1103247
SIDI GHILES,TIPAZA,36.5833323,2.1225093
EL ACHIR,BORDJ-BOU-ARRERIDJ,36.0632388,4.6294961
MOHAMMADIA,ALGER,36.7288713,3.1469178
SOUMAA,BLIDA,36.5184909,2.9084853
BOGHNI,TIZI-OUZOU,36.5407471,3.9571285
AMMI MOUSSA,RELIZANE,35.8702048,1.1081265
EL HARRACH,ALGER,36.7207974,3.1373893
KHEMIS MILIANA,AIN-DEFLA,36.2560052,2.2206013
DJENDEL,AIN-DEFLA,36.2192263,2.4153796
HAMMAM NBAIL,GUELMA,36.3255156,7.640326
AIN DEHEB,TIARET,34.8442761,1.5482536
BENI MESSOUS,ALGER,36.7800963,2.974557
BARBOUCHE,AIN-DEFLA,36.1070568,2.4834843
CHEMINI,BEJAIA,36.5944018,4.6210413
BORDJ OMAR DRISS,ILLIZI,28.1210578,6.820793
BARBACHA,BEJAIA,36.5734726,4.9693825
ZIAMA MANSOURIA,JIJEL,36.6721506,5.4808312
OULED MOUSSA,BOUMERDES,36.6857409,3.3642924
AIN TAGOURAIT,TIPAZA,36.6027844,2.6090961
AIN NAGA,BISKRA,34.6535415,6.1416099
EL KENNAR NOUCHFI,JIJEL,36.8125018,5.9862932
TAMALOUS,SKIKDA,36.8361791,6.6427952
OUYOUN EL ASSAFIR,BATNA,35.5556005,6.3083393
BERRIHANE,EL-TARF,36.8376854,8.1257847
BEKKOUCHE LAKHDAR,SKIKDA,36.6939025,7.3105409
CHETMA,BISKRA,34.8447307,5.7939424
AIN KERMA,EL-TARF,36.563333,8.1984116
BIR EL ATER,TEBESSA,34.7441882,8.0584012
LARBA NAIT IRATHEN,TIZI-OUZOU,36.6374918,4.2028466
HARCHOUN,CHLEF,36.1137919,1.5061783
DRAA EL KAID,BEJAIA,36.4400561,5.234867
MANSOURA,BORDJ-BOU-ARRERIDJ,36.1003544,4.4715751
AIN BENIAN,AIN-DEFLA,36.3523428,2.3899539
OULED ZOUAI,OUM EL-BOUAGHI,35.8402214,6.5114278
KHEZARA,GUELMA,36.3681295,7.5278729
FORNAKA,MOSTAGANEM,35.7519675,-0.0167043
SERIANA,BATNA,35.6925612,6.1850558
EL ATTEUF,GHARDAIA,32.476746,3.7471239
BOUKHADRA,TEBESSA,35.7449518,8.0346837
SIDI MAAROUF,JIJEL,36.6400065,6.2741706
TAGHZOUT,EL-OUED,33.4754769,6.7998514
RAHOUIA,TIARET,35.53032,1.0237833
TACHOUDA,SETIF,36.267485,5.7400239
LAYOUNE,TISSEMSILT,35.6683622,2.0645059
OULED RACHED,BOUIRA,36.2100292,4.1097138
SOUANI,TLEMCEN,34.9221475,-1.9158423
YAKOUREN,TIZI-OUZOU,36.7335937,4.4389944
EL AMRA,AIN-DEFLA,36.3050171,1.8482739
EL OMARIA,MEDEA,36.2671619,3.0270877
HONAINE,TLEMCEN,35.178264,-1.6534421
EL HAMMADIA,BORDJ-BOU-ARRERIDJ,35.972194,4.7704828
AFLOU,LAGHOUAT,34.11252,2.10029
FERRAOUN,BEJAIA,36.5580756,4.8660488
AIN BEIDA,OUARGLA,31.9392925,5.3915209
ZERIBET EL OUED,BISKRA,34.6830199,6.5047333
SIDI LAKHDAR,MOSTAGANEM,36.1643449,0.4406587
BENI ZID,SKIKDA,36.9124122,6.4762934
MSIRDA FOUAGA,TLEMCEN,35.0188577,-2.0831565
BOUDOUAOU EL BAHRI,BOUMERDES,36.7721989,3.4044018
ZAAFRANE,DJELFA,34.8502549,2.8549624
AIN DISS,OUM EL-BOUAGHI,36.0139339,7.0323694
BENI HAOUA,CHLEF,36.5304451,1.5692626
BORDJ BOUNAAMA,TISSEMSILT,35.8505025,1.6170851
BOUINAN,BLIDA,36.5322102,2.9918496
TOUAHRIA,MOSTAGANEM,35.8106097,0.2109301
BENI BAHDEL,TLEMCEN,34.6937442,-1.5187011
TICHI,BEJAIA,36.543869,5.443467
SEDJERARA,MASCARA,35.6299882,0.2132915
TALEB LARBI,EL-OUED,33.728911,7.5176604
DAHMOUNI,TIARET,35.4493097,1.4244372
ROUISSAT,OUARGLA,31.9239554,5.3498372
SIDI LANTRI,TISSEMSILT,35.6936399,1.5032488
FESDIS,BATNA,35.6181167,6.2464392
ZEBOUDJA,CHLEF,36.3540252,1.4302999
AKFADOU,BEJAIA,36.6578395,4.6068165
OUM TOUB,SKIKDA,36.7003588,6.5076167
MEDJANA,BORDJ-BOU-ARRERIDJ,36.1311024,4.669174
SIDI AICH,BEJAIA,36.6127914,4.6913091
EL ABIODH SIDI CHEIKH,EL-BAYADH,32.896484,0.5463928
OULED AMMAR,BATNA,35.4622558,5.1560233
SIDI SLIMANE,TISSEMSILT,35.8544291,1.7237871
BENSEKRANE,TLEMCEN,35.1109,-1.1998396
TALASSA,CHLEF,36.4179865,1.0698952
BORDJ BADJI MOKHTAR,BORDJ BADJI MOKHTAR,21.3302568,0.9540403
SIDI ABDELLI,TLEMCEN,35.044515,-1.1127416
BENI DOUALA,TIZI-OUZOU,36.6188796,4.0824933
DAHRA,CHLEF,36.2545642,0.8518821
DJENDEL SAADI MOHAMED,SKIKDA,36.7792138,7.1724216
OULED ADDI GUEBALA,MSILA,35.675496,4.9072115
MENAA,BATNA,35.1762498,6.0039939
TADMAIT,TIZI-OUZOU,36.7446573,3.9012256
BOUCHEGOUF,GUELMA,36.4704821,7.7290561
LAHMAR,BECHAR,31.8492486,-2.2807576
MISSERGHIN,ORAN,35.6179905,-0.7343553
LIOUA,BISKRA,34.6392137,5.4009134
AIN TORKI,AIN-DEFLA,36.3348803,2.3032371
M_ZIRAA,BISKRA,34.7207686,6.2947449
BIR GHBALOU,BOUIRA,36.2628812,3.5850113
SEBDOU,TLEMCEN,34.6403022,-1.3220383
FREHA,TIZI-OUZOU,36.757399,4.3194454
SEGHOUANE,MEDEA,36.0008943,2.905162
CHEURFA,ANNABA,36.7221505,7.5731982
SIDI AMEUR,MSILA,35.3651917,3.8257007
BOUZEGHAIA,CHLEF,36.3605876,1.2627232
AIN BEN KHELIL,NAAMA,33.160057,-0.9420284
BEN AZZOUZ,SKIKDA,36.8600024,7.2917539
KSAR EL HIRANE,LAGHOUAT,33.7012081,3.2269282
BEN AKNOUN,ALGER,36.7565214,3.0084296
MEGARINE,TOUGGOURT,33.1930214,6.0932032
OULED CHEBEL,ALGER,36.5981574,2.9949504
AIN ROMANA,BLIDA,36.4065567,2.691004
TADJENANET,MILA,36.1192994,5.9857948
OUED MORRA,LAGHOUAT,34.1649241,2.3247059
OUED ATHMANIA,MILA,36.266171,6.3117791
KHERRATA,BEJAIA,36.4936262,5.2771041
TIRMITINE,TIZI-OUZOU,36.6686811,3.9653731
OULED RECHACHE,KHENCHELA,35.2972988,7.3548369
ARZEW,ORAN,35.856348,-0.313678
DJEMILA,SETIF,36.3208994,5.7367902
OUARIZANE,RELIZANE,36.0444332,0.8959531
OULED KIHAL,AIN-TEMOUCHENT,35.3685532,-1.2348973
EL GUELBELKEBIR,MEDEA,36.2556406,3.4168521
BIR OULED KHELIFA,AIN-DEFLA,36.1807064,2.2276595
AMIZOUR,BEJAIA,36.6439022,4.9036535
AIN BEIDA HARRICHE,MILA,36.3959678,5.8941024
GOLEA,EL MENIAÂ,30.5836683,2.8830889
BREZINA,EL-BAYADH,32.5323489,1.754273
BENI AISSI,TIZI-OUZOU,36.6577044,4.0893302
MECHROHA,SOUK-AHRAS,36.3565124,7.8387478
AIN ABESSA,SETIF,36.3000482,5.2953337
TAFRAOUI,ORAN,35.444756,-0.5542336
DHALAA,OUM EL-BOUAGHI,35.460285,7.5500058
SIDI AMRANE,EL-OUED,35.0357093,6.3405626
EL KHEMIS,DJELFA,35.4050761,2.7048777
BOUSFER,ORAN,35.7012331,-0.8103918
EL HADJEB,BISKRA,34.7892294,5.5996001
KAOUS,JIJEL,36.7701723,5.8136168
OULED RAHMOUN,CONSTANTINE,36.1788485,6.701422
OULED BRAHIM,SAIDA,34.9895932,0.475625
AIN LARBI,GUELMA,36.2850588,7.3882292
KHEIR EDDINE,MOSTAGANEM,35.9510576,0.1799828
CHREA,BLIDA,36.4267854,2.8765029
MKIRA,TIZI-OUZOU,36.6315675,3.7830006
MENDES,RELIZANE,35.6507899,0.8644816
HAMMAM DEBAGH,GUELMA,36.4602654,7.2676947
HAMMAM RIGHA,AIN-DEFLA,36.3827173,2.4009305
MESSELMOUN,TIPAZA,36.5626559,2.0022623
BEN MHIDI,EL-TARF,36.7704579,7.9053142
OGGAZ,MASCARA,35.5621748,-0.2588196
DELLYS,BOUMERDES,36.9140699,3.9129556
FROHA,MASCARA,35.27606,0.120643
BOURKIKA,TIPAZA,36.4942993,2.4775236
TAZMALT,BEJAIA,36.3885111,4.4000106
EL MAHMAL,KHENCHELA,35.3751785,7.2115567
AIN FEKAN,MASCARA,35.1763942,-0.024915
KHENEG,LAGHOUAT,33.7447402,2.7911348
BENI OUNIF,BECHAR,32.0501891,-1.2486808
BOUGOUS,EL-TARF,36.6582252,8.3707314
BOUHAROUN,TIPAZA,36.6248757,2.657232
HASSI EL EUCH,DJELFA,35.0780426,3.2427004
BENI AZIZ,SETIF,36.4645062,5.6490139
EL MAGHARIA,ALGER,36.7313349,3.1085569
BEN CHOUD,BOUMERDES,36.8641433,3.8801313
RAHMANIA,ALGER,36.6805367,2.9064684
ARIB,AIN-DEFLA,36.2919441,2.0683322
DEUX BASSINS,MEDEA,36.4694702,3.2994088
SIDI MAKHLOUF,LAGHOUAT,34.0676281,2.8669111
IN GUEZZAM,IN GUEZZAM,19.5696707,5.7725744
AIN EL HADJAR,SAIDA,34.7612263,0.1442892
ZELFANA,GHARDAIA,32.3936629,4.2268033
DJERMA,BATNA,35.6844999,6.2909032
OULED MIMOUN,TLEMCEN,34.904794,-1.0281674
AIN DJASSER,BATNA,35.8596869,6.0012835
AIN LAHDJAR,SETIF,35.9404062,5.5408781
EL ANCER,JIJEL,36.7941634,6.1770786
TIXTER,BORDJ-BOU-ARRERIDJ,36.0291572,5.1117578
MELLAKOU,TIARET,35.2380662,1.2807715
CHEBLI,BLIDA,36.5774573,3.0090176
BOUMEDFAA,AIN-DEFLA,36.3700317,2.4732963
EL ASSAFIA,LAGHOUAT,33.9018768,3.0953642
LAZHARIA,TISSEMSILT,35.957524,1.567879
BABOR,SETIF,36.4898622,5.5378293
DRAA KEBILA,SETIF,36.4223095,4.9977651
EL KARMA,ORAN,35.6124273,-0.5787918
YAHIA BENI GUECHA,MILA,36.3907169,5.9940093
AIN EL ARBAA,AIN-TEMOUCHENT,35.4058264,-0.8811572
OUED FRAGHA,GUELMA,36.5384712,7.6854268
GUIDJEL,SETIF,36.081278,5.4920263
NACIRIA,BOUMERDES,36.7471933,3.836858
BALIDAT AMEUR,TOUGGOURT,32.9417127,5.9744271
ZEGHAIA,MILA,36.480762,6.1673842
DJINET,BOUMERDES,36.8779905,3.720138
OUED DJER,BLIDA,36.4268459,2.5605348
TREAT,ANNABA,36.9331905,7.4031122
EL HAMEL,MSILA,35.1308796,4.0879174
MERAHNA,SOUK-AHRAS,36.1978548,8.1556144
SIDI ABDERRAHMANE,CHLEF,36.4791747,1.1257586
ARRIS,BATNA,35.258514,6.3449818
BRANIS,BISKRA,34.9947631,5.772251
CHERIA,TEBESSA,35.2706778,7.7527115
BENI TAMOU,BLIDA,36.5374705,2.8206529
SOUK EL HAD,BOUMERDES,36.6919747,3.5915607
SOUK NAAMANE,OUM EL-BOUAGHI,35.8953079,6.3925749
CHETAIBI,ANNABA,37.0119395,7.4025879
MENAA,MSILA,35.1448839,3.6955175
GRAREM GOUGA,MILA,36.5152648,6.3261322
CHABET EL AMEUR,BOUMERDES,36.6374131,3.6957712
CHERCHEL,TIPAZA,36.6075021,2.1901982
TASSALA LEMTAI,MILA,36.5693012,5.9884624
MAAFA,BATNA,35.2663121,5.9018467
LICHANA,BISKRA,34.7251766,5.4356505
BELIMOUR,BORDJ-BOU-ARRERIDJ,35.9800721,4.8818115
MEDROUSSA,TIARET,35.1830659,1.1552709
BERRICHE,OUM EL-BOUAGHI,35.917798,7.3769813
OUED TLELAT,ORAN,35.5519239,-0.4522604
MIH OUENSA,EL-OUED,33.1995461,6.7096899
EL GHROUS,BISKRA,34.7054162,5.2854921
EL AOUANA,JIJEL,36.7716565,5.6114699
OUED NINI,OUM EL-BOUAGHI,35.5721271,7.3490145
BENI ZIKI,TIZI-OUZOU,36.565846,4.5068005
MAKOUDA,TIZI-OUZOU,36.7919734,4.0624221
CHAIBA,TIPAZA,36.6095154,2.7330752
HIDOUSSA,BATNA,35.5283105,5.9188903
TERNI BENI HEDIEL,TLEMCEN,34.7956632,-1.3553955
OULED SIDI BRAHIM,MSILA,35.3510378,4.1387382
SIDI SAFI,AIN-TEMOUCHENT,35.279924,-1.3137781
OUED CHAABA,BATNA,35.5238426,6.0346692
MOULAY LARBI,SAIDA,34.5952995,-0.1984171
BOUARFA,BLIDA,36.4638905,2.8126394
BORDJ ZEMOURA,BORDJ-BOU-ARRERIDJ,36.2690807,4.8402663
TAMLOUKA,GUELMA,36.1592954,7.1399798
ZEMMOURI,BOUMERDES,36.7864064,3.6012209
EL MADHER,BATNA,35.6258746,6.3706722
GHILASSA,BORDJ-BOU-ARRERIDJ,35.847568,4.9083006
BOUHAMZA,BEJAIA,36.4450868,4.6855035
BERHOUM,MSILA,35.654979,5.0344441
EL GHEDIR,SKIKDA,36.687176,6.9771347
SIDI BOUBEKEUR,SAIDA,34.9993322,-0.0258721
LARBAA,TISSEMSILT,35.9115725,1.4627421
OUED EL BERDI,BOUIRA,36.2885851,3.9180743
MAADID,MSILA,35.7974466,4.7564949
SIDI MEROUANE,MILA,36.5189042,6.2603141
OUM EL ADHAIM,SOUK-AHRAS,36.0283173,7.6041509
TAOURGA,BOUMERDES,36.7935601,3.9500124
ASFOUR,EL-TARF,36.6450055,7.9718849
AIN TASSERA,BORDJ-BOU-ARRERIDJ,36.0179598,4.9695974
GOURAYA,TIPAZA,36.5720127,1.9057978
AIN ZAOUIA,TIZI-OUZOU,36.5502351,3.8948674
OULED RIAH,TLEMCEN,34.9610292,-1.4980498
AIN EL KEBIRA,SETIF,36.3648446,5.5069356
SOBHA,CHLEF,36.1064562,1.0312961
TABELBALA,BÉNI ABBÈS,29.4054154,-3.2553664
KHOUBANA,MSILA,35.3244533,4.4831929
AIN ZERGA,TEBESSA,35.6480159,8.2603257
ZANA EL BEIDA,BATNA,35.7950928,6.10481
TINEBDAR,BEJAIA,36.6232839,4.6781911
AIN LECHIAKH,AIN-DEFLA,36.1220983,2.4054963
OULED SI SLIMANE,BATNA,35.61043,5.6322042
LAHLEF,RELIZANE,35.8932512,0.9795402
OUED CHOULY,TLEMCEN,34.8749626,-1.1341145
BOUAICHE,MEDEA,35.5538128,2.358512
BOUSKENE,MEDEA,36.1951317,3.2157348
KHADRA,MOSTAGANEM,36.2541082,0.5747888
MEKLA,TIZI-OUZOU,36.6876391,4.2681185
CHENIGUEL,MEDEA,35.9234302,3.5668505
KENDIRA,BEJAIA,36.5574534,5.0215287
OULED SELLAM,BATNA,35.828613,5.8830702
MEDJEZ AMAR,GUELMA,36.4816296,7.3214002
OULED FADEL,BATNA,35.5558054,6.6785087
MEKHATRIA,AIN-DEFLA,36.3025793,1.9597495
OUED EL DJEMAA,RELIZANE,35.7959797,0.6816434
AOUF,MASCARA,35.1251194,0.3578556
MOUDJEBEUR,MEDEA,35.9534707,2.8254889
HANNACHA,MEDEA,36.1895198,2.5666083
BOUZINA,BATNA,35.2648362,6.0988647
SIDI RACHED,TIPAZA,36.5625526,2.5324546
ILLIZI,ILLIZI,26.504191,8.479926
EL HAMDANIA,MEDEA,36.3620816,2.767105
AIN TALLOUT,TLEMCEN,34.9299907,-0.9542742
MESRA,MOSTAGANEM,35.8372794,0.1693314
BOUAICHOUNE,MEDEA,36.1465322,2.6613294
TAOURIRT IGHIL,BEJAIA,36.6995991,4.6977077
KHETTOUTI SED EL DJIR,MSILA,35.6790741,4.2599517
TAGHIT,BECHAR,30.9170611,-2.0294754
ECH CHAIBA,OULED DJELLAL,34.8407894,4.9234598
TIZI,MASCARA,35.3161396,0.0739093
AMOUCHA,SETIF,36.3766245,5.4181884
EL GUERRARA,GHARDAIA,32.7885786,4.4882869
HASSI MEFSOUKH,ORAN,35.8006933,-0.3765323
AIN ZANA,SOUK-AHRAS,36.4018987,8.2093288
EL AIOUN,EL-TARF,36.8267353,8.6012293
AIN GHORABA,TLEMCEN,34.7365837,-1.3976844
AIN KIHEL,AIN-TEMOUCHENT,35.219587,-1.1969828
BIR KASDALI,BORDJ-BOU-ARRERIDJ,36.1314462,5.007946
TIENET,TLEMCEN,35.0522613,-1.838749
OUED EL ABTAL,MASCARA,35.4552913,0.687517
AIT YAHIA,TIZI-OUZOU,36.5992546,4.3434679
OUED ZHOUR,SKIKDA,36.9267502,6.3158927
EL BOUIHI,TLEMCEN,34.3026316,-1.6021224
SIDI SAID,BEJAIA,36.6069076,4.820703
FELLAOUCENE,TLEMCEN,35.0137351,-1.5700733
AIN SIDI ALI,LAGHOUAT,34.1579118,1.5701308
AIN SKHOUNA,SAIDA,34.5054288,0.8490051
ZEKRI,TIZI-OUZOU,36.7803397,4.5895193
EL OUATA,BÉNI ABBÈS,29.8608014,-1.8496314
EL BORDJ,MASCARA,35.5025471,0.3340476
IN GHAR,IN SALAH,27.1018319,1.9065264
ROBBAH,EL-OUED,33.2894337,6.9040129
TIBERKANINE,AIN-DEFLA,36.1746084,1.6274197
BEN SROUR,MSILA,34.991345,4.5550981
TAMENTIT,ADRAR,27.7613334,-0.2657533
IGHIL ALI,BEJAIA,36.3378593,4.470196
AHL EL KSAR,BOUIRA,36.2528069,4.0414067
EL KHARROUBA,BOUMERDES,36.6564534,3.4068647
IBOUDRAREN,TIZI-OUZOU,36.5093387,4.251257
AIT TOUDERT,TIZI-OUZOU,36.5203106,4.1844513
MELBOU,BEJAIA,36.6403282,5.3626372
CHERAIA,SKIKDA,37.0017763,6.5133033
BENHAR,DJELFA,35.484908,3.00944
TIBANE,BEJAIA,36.6135798,4.652601
AIN BEN BEIDA,GUELMA,36.5869396,7.6456669
BOUHENNI,MASCARA,35.561548,-0.0885759
ROKNIA,GUELMA,36.58132,7.1826574
TIBERGUENT,MILA,36.3978575,6.0587121
TIDJELABINE,BOUMERDES,36.7321389,3.4956358
AMIRA ARRES,MILA,36.551664,6.0558151
BENAIRIA,CHLEF,36.3844273,1.3743329
EL EMIR ABDELKADER,AIN-TEMOUCHENT,35.2218671,-1.4050359
EL MARSA,CHLEF,36.4038198,0.9161822
AIT YAHIA MOUSSA,TIZI-OUZOU,36.6379122,3.8862283
ASSI YOUCEF,TIZI-OUZOU,36.5055421,4.0145154
TADJEMOUT,LAGHOUAT,33.8796356,2.5246794
COLLA,BORDJ-BOU-ARRERIDJ,36.2468046,4.6643641
KSAR KADDOUR,TIMIMOUN,29.578491,0.3739728
MESKIANA,OUM EL-BOUAGHI,35.6291407,7.6694143
SANEG,MEDEA,35.8513982,2.8390673
AIN EL HAMMAM,TIZI-OUZOU,36.5704326,4.3111366
KOUININE,EL-OUED,33.4037855,6.8264542
OUZELLAGUEN,BEJAIA,36.5478525,4.5766984
AIT LAAZIZ,BOUIRA,36.4445645,3.8807851
IGHRAM,BEJAIA,36.4622509,4.5042534
CHAHBOUNIA,MEDEA,35.5415407,2.6037738
SAFSAF,MOSTAGANEM,35.8657307,0.4045066
OUED ENDJA,MILA,36.4296241,6.1218697
BEN CHICAO,MEDEA,36.2284661,2.8740929
SALAH BOUCHAOUR,SKIKDA,36.7044252,6.8563693
SLIM,MSILA,34.8953467,3.7350935
AMMARI,TISSEMSILT,35.6145964,1.6524176
OUED GHIR,BEJAIA,36.7106296,4.9782915
OUAGUENOUN,TIZI-OUZOU,36.7588492,4.1844109
EL OUENZA,TEBESSA,35.9537262,8.1283088
KSAR SBAHI,OUM EL-BOUAGHI,36.0614655,7.2530315
AMIEUR,TLEMCEN,35.0048057,-1.2377829
GUERROUMA,BOUIRA,36.4326797,3.4277272
DARGUINA,BEJAIA,36.564307,5.3063118
NAKHLA,EL-OUED,33.2763121,6.9515739
AIN BOUCHEKIF,TIARET,35.3307092,1.4846026
SIDI BAIZID,DJELFA,35.0188069,3.4321688
ZAOUIET KOUNTA,ADRAR,27.2300419,-0.1933113
FEIDH EL BOTMA,DJELFA,34.5286598,3.784909
EL MERIDJ,TEBESSA,35.8236435,8.2033515
HASSANI ABDELKRIM,EL-OUED,33.4771663,6.8948804
AIN YOUCEF,TLEMCEN,35.0472865,-1.3739319
BOUHMAMA,KHENCHELA,35.3188013,6.7466351
HANCHIR TOUMGHANI,OUM EL-BOUAGHI,35.9346179,6.7412657
EL BIOD,NAAMA,33.7636135,-0.1306774
MAGHRAOUA,MEDEA,36.3829276,3.5291267
BIR HADDADA,SETIF,35.9630462,5.4308609
HAMMAM BENI SALAH,EL-TARF,36.5193221,8.035929
SOUAREKH,EL-TARF,36.8823518,8.5660285
BENI HAMIDENE,CONSTANTINE,36.5069941,6.5489049
BENIAN,MASCARA,35.0836488,0.2313191
EL HACHIMIA,BOUIRA,36.2194302,3.8161128
DJEBAHIA,BOUIRA,36.4768208,3.758111
BIR BOU HAOUCH,SOUK-AHRAS,36.0142141,7.4290603
HASSI BEN ABDELLAH,OUARGLA,32.2199778,5.8655476
BIR DHEHEB,TEBESSA,35.5245771,7.9395054
OULED SIDI MIHOUB,RELIZANE,35.9738265,0.6927849
MIZRANA,TIZI-OUZOU,36.8447164,4.0962588
OUED DJEMAA,AIN-DEFLA,36.040892,2.3710713
OUED EL KHEIR,MOSTAGANEM,35.9398123,0.3849409
SIDI KHALED,OULED DJELLAL,34.3915907,5.0005177
KASDIR,NAAMA,33.7094366,-1.358688
DJANET,DJANET,24.5538847,9.484194
DJOUAB,MEDEA,36.112315,3.4400244
BOUHLOU,TLEMCEN,34.8079693,-1.6025722
KHEMISTI,TISSEMSILT,35.6848996,1.9409705
HANIF,BOUIRA,36.3347997,4.2617798
KANOUA,SKIKDA,37.0470382,6.4205306
RECHAIGA,TIARET,35.312233,2.1203069
GUELTA ZERGA,SETIF,36.20575,5.6799343
HOUNET,SAIDA,35.118267,-0.1487685
BOUANDAS,SETIF,36.5045875,5.1036159
ROSFA,SETIF,35.8099925,5.2661899
BEKKARIA,TEBESSA,35.3746584,8.2407034
TINERKOUK,TIMIMOUN,30.461939,1.3611996
BOUHAMDANE,GUELMA,36.4637898,7.112547
MEDJEZ SFA,GUELMA,36.4441932,7.824483
ADEKAR,BEJAIA,36.6929171,4.6734299
DJEBALA,TLEMCEN,34.9599087,-1.8212834
CHELLAL,MSILA,35.5138695,4.3785487
KHAMS DJOUAMAA,MEDEA,36.1474693,3.1331309
SIDI ABDELAZIZ,JIJEL,36.853261,6.051473
HASSI KHELIFA,EL-OUED,33.5630338,6.9953023
AIN MAABED,DJELFA,34.8361526,3.1503724
MAGRA,MSILA,35.6163647,5.1014147
FKIRINA,OUM EL-BOUAGHI,35.6608817,7.2972243
SIDI ABDELMOUMENE,MASCARA,35.6528372,0.0137958
BENI DJELLIL,BEJAIA,36.5728807,4.8104334
EL GOR,TLEMCEN,34.5532464,-1.0503708
BABAR,KHENCHELA,35.1688559,7.1054786
NADORAH,TIARET,35.2154942,1.9127933
OULED DAHMANE,BORDJ-BOU-ARRERIDJ,36.2303398,4.7756321
ABALESSA,TAMANRASSET,22.8896277,4.8476861
IFIGHA,TIZI-OUZOU,36.6714929,4.4137989
SIDI KHETTAB,RELIZANE,35.9105034,0.5113687
SIDI AMAR,SAIDA,34.999902,0.134016
TOUSNINA,TIARET,35.0930304,1.3220813
TERRAGUELT,SOUK-AHRAS,35.8842976,7.5980674
ZAAROURIA,SOUK-AHRAS,36.2256214,7.9582241
BENI BOUSSAID,TLEMCEN,34.6480251,-1.7529879
AIN ZARIT,TIARET,35.3533903,1.6669943
AIN FEZZA,TLEMCEN,34.8780405,-1.2348586
EL MARSA,SKIKDA,37.0310788,7.2566883
RAS EL MIAAD,OULED DJELLAL,34.1838961,4.4510462
ROGASSA,EL-BAYADH,34.0182474,0.9262211
MLILIHA,DJELFA,34.7195744,3.688974
KEF EL AHMAR,EL-BAYADH,33.8504062,0.6332841
DJEMAA OULED CHEIKH,AIN-DEFLA,36.0770321,2.0045972
AGHBALOU,BOUIRA,36.427009,4.352646
BENI SEMIEL,TLEMCEN,34.7851213,-1.0917147
KALAA,RELIZANE,35.5817849,0.3285197
YOUSSOUFIA,TISSEMSILT,35.8960794,2.126545
SAHARIDJ,BOUIRA,36.3974847,4.2482336
ZERIZER,EL-TARF,36.7222365,7.9065934
MEKHADMA,BISKRA,34.5644591,5.4612955
MINAR ZARZA,MILA,36.5344008,5.9115909
SOUAFLIA,MOSTAGANEM,35.8460196,0.3123305
AOULEF,ADRAR,26.9722077,1.0786817
AGHLAL,AIN-TEMOUCHENT,35.2024598,-1.0817802
M_CHOUNECHE,BISKRA,34.9069849,6.0033889
LAC DES OISEAUX,EL-TARF,36.7759247,8.1185433
TOUSMOULINE,EL-BAYADH,33.6271375,0.3136009
TIN ZAOUATINE,IN GUEZZAM,19.9541906,2.9694782
AIN NEHALA,TLEMCEN,35.032462,-0.9900622
DEBDEB,ILLIZI,29.966978,9.424233
MOHAMED BOUDIAF,MSILA,34.8991073,4.4297754
SOUK OUFELLA,BEJAIA,36.6054725,4.6382952
NADOR,TIPAZA,36.5693907,2.3935492
ILLILTEN,TIZI-OUZOU,36.5160617,4.3944151
ZITOUNA,EL-TARF,36.6667412,8.2331969
HADDADA,SOUK-AHRAS,36.2306963,8.3377472
AIT KHELILI,TIZI-OUZOU,36.6757921,4.30882
LARHAT,TIPAZA,36.556746,1.8030812
ZELMATA,MASCARA,35.2649221,0.5315257
MEZDOUR,BOUIRA,36.0794428,4.0682603
SIDI ABDERRAHMANE,TIARET,34.5313852,1.0720717
SIDI KHOUILED,OUARGLA,31.9786887,5.4190448
SOUR,MOSTAGANEM,35.9586043,0.315475
SIDI BOUTOUCHENT,TISSEMSILT,35.8232714,1.9223329
NECHMAYA,GUELMA,36.6111841,7.5132917
OULED HAMLA,OUM EL-BOUAGHI,36.0795998,6.4720919
AIN EL ORAK,EL-BAYADH,33.4092219,0.7398474
RABTA,BORDJ-BOU-ARRERIDJ,35.9101108,4.7830133
CHEHAIMA,TIARET,34.5446115,1.3907908
RAOURAOUA,BOUIRA,36.2362601,3.6463352
YATAFEN,TIZI-OUZOU,36.5519079,4.2557573
EL MAMOUNIA,MASCARA,35.4247978,0.141363
SETTARA,JIJEL,36.7052717,6.3591657
ALAIMIA,MASCARA,35.6739515,-0.2205391
SOUAMAA,TIZI-OUZOU,36.6422876,4.3422178
SIDI TIFOUR,EL-BAYADH,33.6242805,1.7336176
BENI FOUDA,SETIF,36.2855197,5.6093601
OULED BESSEM,TISSEMSILT,35.6987742,1.8240855
EL ASNAM,BOUIRA,36.3212726,4.0130501
EL ARICHA,TLEMCEN,34.2240422,-1.2576653
AIN BERDA,ANNABA,36.672304,7.6360029
SIDI SLIMANE,TOUGGOURT,33.2918236,5.9485865
MEGHILA,TIARET,35.6062255,1.4353918
BOUKHELIFA,BEJAIA,36.6368914,5.0749708
EL EUCH,BORDJ-BOU-ARRERIDJ,35.8990321,4.5984311
EL KHABOUZIA,BOUIRA,36.309078,3.5971679
OUED HARBIL,MEDEA,36.2267996,2.632787
REBAIA,MEDEA,36.0278906,3.1381565
BOULEHILET,BATNA,35.737649,6.6305203
TAMZA,KHENCHELA,35.2514688,6.9973328
EL OGLA,TEBESSA,35.1887497,7.4688516
OULED SLIMANE,MSILA,34.9270365,4.8569699
HADJ MECHRI,LAGHOUAT,33.9977205,1.5460748
BREIRA,CHLEF,36.4488016,1.6150342
BENI CHEBANA,SETIF,36.4684262,4.8684047
AIN SEBT,SETIF,36.4864183,5.7113671
LEFLAYE,BEJAIA,36.6090456,4.6713413
BEDJENE,TEBESSA,35.3386113,7.4832056
CHELLALA,EL-BAYADH,33.0170236,0.0896971
ZAOUIA EL ABIDIA,TOUGGOURT,33.1328718,6.082352
AOUGROUT,TIMIMOUN,28.7074429,0.3406103
DJEZZAR,BATNA,35.5082551,5.2676704
EL OUTAYA,BISKRA,35.0345657,5.58955
SEHAILIA,MASCARA,35.4470807,0.3951191
OUED CHORFA,AIN-DEFLA,36.1655491,2.5546056
OULED KHOUDIR,BÉNI ABBÈS,29.2565086,-1.0596458
RAML SOUK,EL-TARF,36.7878718,8.5351897
BORDJ BEN AZZOUZ,BISKRA,34.6957162,5.3612562
BOUGARA,TIARET,35.5461351,1.9893403
AIN REGGADA,GUELMA,36.2799044,7.0765494
EL KOUIF,TEBESSA,35.500823,8.321967
OUED SEBBAH,AIN-TEMOUCHENT,35.4036087,-0.802459
IN AMENAS,ILLIZI,28.0386648,9.5761505
MECHTRASS,TIZI-OUZOU,36.5438917,4.011092
TERGA,AIN-TEMOUCHENT,35.4181291,-1.1782222
RAMKA,RELIZANE,35.8669131,1.2836132
BOUHACHANA,GUELMA,36.2984694,7.4744504
BENI MESTER,TLEMCEN,34.8704485,-1.4210036
SED RAHAL,DJELFA,33.7457193,3.5676602
SEFIANE,BATNA,35.4379384,5.5597763
EL KANTARA,BISKRA,35.2231152,5.7092844
BAZER SAKRA,SETIF,36.1163229,5.7111139
SOUK EL KHEMIS,BOUIRA,36.3912273,3.631778
SIDI AHMED,SAIDA,34.5372597,0.2266086
HACINE,MASCARA,35.4572062,-0.0024555
MOUSSADEK,CHLEF,36.3510426,1.0168894
EL HOUAMED,MSILA,35.167244,4.5596132
DIRAH,BOUIRA,35.9976386,3.7542319
CHAREF,DJELFA,34.6270918,2.8059171
SIDI SAADA,RELIZANE,35.675994,0.3414394
MANSOURAH,MOSTAGANEM,35.8637284,0.2475903
TASKRIOUT,BEJAIA,36.5558587,5.2799112
BEN ALLAL,AIN-DEFLA,36.311118,2.1639492
BRIDA,LAGHOUAT,33.906785,1.7837801
DERRAG,MEDEA,35.9079962,2.3881316
AIN ROUA,SETIF,36.3343734,5.1836626
BELAIBA,MSILA,35.527774,5.1546938
ERG FERRADJ,BECHAR,31.035729,-2.7896737
BOUHATEM,MILA,36.314608,6.0521801
HERENFA,CHLEF,36.2428312,1.0602519
ABDELMALEK RAMDANE,MOSTAGANEM,36.1052802,0.2734995
BENI KHELLAD,TLEMCEN,35.18283,-1.5846786
TAMRIDJET,BEJAIA,36.5721683,5.3746744
IMSOUHAL,TIZI-OUZOU,36.5802779,4.3927117
SIDI ALI MELLAL,TIARET,35.6006223,1.1674239
OULED HEBABA,SKIKDA,36.5037216,6.9583356
BENZOUH,MSILA,35.4567182,4.1027402
ZEDDINE,AIN-DEFLA,36.1562103,1.8201697
NEGRINE,TEBESSA,34.4855133,7.5219594
IRDJEN,TIZI-OUZOU,36.6683028,4.1464762
AIN MELLOUK,MILA,36.273988,6.1447568
TAIBET,TOUGGOURT,33.0979751,6.4050945
BENI ZMENZER,TIZI-OUZOU,36.6370642,4.039063
MAARIF,MSILA,35.3646164,4.2958888
OULED DEIDE,MEDEA,36.112135,3.0142787
MAAMORA,SAIDA,34.600538,0.5253817
AIN BOUYAHIA,AIN-DEFLA,36.2878137,1.7658713
ARBAOUAT,EL-BAYADH,33.0882649,0.5812401
SIDI NAAMANE,TIZI-OUZOU,36.7586177,3.9814233
DOUIS,DJELFA,34.2617665,2.7589342
OULED MANSOUR,MSILA,35.7314425,4.3867504
EL FEDJOUDJ BOUGHRARA SAOUDI,OUM EL-BOUAGHI,35.7103668,6.8193521
OULED AISSA,BOUMERDES,36.8064756,3.8093139
TARIK IBN ZIAD,AIN-DEFLA,35.9886074,2.1444273
TAMESGUIDA,MEDEA,36.3223888,2.6895235
MELAAB,TISSEMSILT,35.7176605,1.3230934
MEKMEN BEN AMAR,NAAMA,33.8449135,-0.7605891
HAMMAM GUERGOUR,SETIF,36.3222697,5.0548526
AIT MAHMOUD,TIZI-OUZOU,36.6101802,4.119514
SERDJ EL GHOUL,SETIF,36.4778394,5.5804802
EL OGLA EL MALHA,TEBESSA,35.1331931,8.0066489
BENI KSILA,BEJAIA,36.881989,4.6643892
BENDAOUD,BORDJ-BOU-ARRERIDJ,36.0515335,4.1723061
HANANCHA,SOUK-AHRAS,36.2603074,7.7930747
AIN TAREK,RELIZANE,35.781388,1.1302226
AIT BOUMAHDI,TIZI-OUZOU,36.4988813,4.2019993
SEGGANA,BATNA,35.3641602,5.5719001
AIN RAHMA,RELIZANE,35.6237721,0.393045
GUERNINI,DJELFA,35.1687715,2.7876915
KSAR BELEZMA,BATNA,35.6762717,5.9021516
EL HARMILIA,OUM EL-BOUAGHI,35.9250906,6.6223907
AIN ZITOUN,OUM EL-BOUAGHI,35.7137192,7.0576594
OUED BERKECHE,AIN-TEMOUCHENT,35.2085599,-0.9691829
AIN SIDI CHERIF,MOSTAGANEM,35.814396,0.139876
TAOUILA,LAGHOUAT,33.8541515,1.845551
GUERTOUFA,TIARET,35.4492532,1.167637
HAMMAMET,TEBESSA,35.4492907,7.9503219
ZOUBIRIA,MEDEA,36.0697903,2.9044757
TADJROUNA,LAGHOUAT,33.55447,2.0639215
EL MENAOUER,MASCARA,35.528555,0.4340311
BENI LAHCENE,TISSEMSILT,35.7913877,1.7162134
FOUGHALA,BISKRA,34.7309552,5.3260042
BOUSSELAM,SETIF,36.4939112,5.0067912
EL GHICHA,LAGHOUAT,33.8750888,2.1395264
TADMIT,DJELFA,34.2900968,2.9443456
HAMALA,MILA,36.571449,6.3391852
OULED MAAREF,MEDEA,35.8156097,3.0336045
RAHBAT,BATNA,35.7128568,5.6562846
SFISSIFA,NAAMA,32.7879643,-1.0150328
AIN LAGRADJ,SETIF,36.4111145,4.9033097
TIT,ADRAR,26.9383021,1.4910197
TAGUEDIT,BOUIRA,35.953245,3.9556239
BIR BEN ABED,MEDEA,36.1925121,3.4197517
GUIGBA,BATNA,35.7341561,5.5896477
OULED ATTIA,SKIKDA,36.9949643,6.3424894
CHENTOUF,AIN-TEMOUCHENT,35.3043747,-1.0291377
SALI,ADRAR,26.9612527,-0.0251553
DEHAMCHA,SETIF,36.3835662,5.5924952
AIN KEBIRA,TLEMCEN,35.0259971,-1.6817375
AZIZ,MEDEA,35.8239347,2.4517089
BOUDERBALA,BOUIRA,36.5808208,3.5099986
EL GUEITNA,MASCARA,35.4084418,-0.0524258
OULED GACEM,OUM EL-BOUAGHI,36.0327241,6.6880676
AIN FETAH,TLEMCEN,34.9710827,-1.6437806
TAMSA,MSILA,35.2030498,3.925728
TELLA,SETIF,36.00827,5.7188856
EL OUELDJA,SETIF,36.088243,5.9221989
EL FEHOUL,TLEMCEN,35.1379542,-1.2832125
HARBIL,SETIF,36.3473445,4.9251967
TAGLAIT,BORDJ-BOU-ARRERIDJ,35.7719161,5.0011451
TARMOUNT,MSILA,35.8190907,4.2859961
REGGANE,ADRAR,26.7207267,0.1751507
AKERROU,TIZI-OUZOU,36.8074389,4.4421846
OUED LILLI,TIARET,35.5070619,1.2673933
ROUINA,AIN-DEFLA,36.2448216,1.8055909
ASLA,NAAMA,32.718689,-0.1574112
TAGHZOUT,BOUIRA,36.407633,3.958772
OULED TEBBEN,SETIF,35.787703,5.0998466
BOUZEGZA KEDDARA,BOUMERDES,36.6250914,3.4807733
BENI MEZLINE,GUELMA,36.4703791,7.6210166
OULED BRAHEM,BORDJ-BOU-ARRERIDJ,35.896618,5.0804017
SIDI MEDJAHED,TLEMCEN,34.7532818,-1.6244529
AZAILS,TLEMCEN,34.6542249,-1.4228284
SI MAHDJOUB,MEDEA,36.1613133,2.7215517
BELLAA,SETIF,36.220694,5.8690571
DJAAFRA,BORDJ-BOU-ARRERIDJ,36.2895829,4.6261691
BOUCHTATA,SKIKDA,36.8168179,6.780452
KERZAZ,BÉNI ABBÈS,29.8816803,-0.8889016
OUMACHE,BISKRA,34.6952035,5.6991395
MOGHRAR,NAAMA,32.4487848,-0.537516
SIDI  ABDELGHANI,TIARET,35.2087327,1.6768434
TIMOKTEN,ADRAR,27.0214579,1.0140877
ERRAGUENE,JIJEL,36.5864588,5.5812865
RAS EL AIN AMIROUCHE,MASCARA,35.6242443,-0.2129037
OULED BOUDJEMAA,AIN-TEMOUCHENT,35.4718663,-1.1926145
SIDI DJILLALI,TLEMCEN,34.4168289,-1.4953807
AIN ZAATOUT,BISKRA,35.146374,5.8373678
MAACEM,TISSEMSILT,35.6415775,1.5435717
TASSADANE HADDADA,MILA,36.5016155,5.8787288
SIDI SEMIANE,TIPAZA,36.4998942,2.066288
SIDI BOUZID,LAGHOUAT,34.3265059,2.195601
SIDI HADJERES,MSILA,35.7013305,4.0641659
SIDI BAKHTI,TIARET,35.2367811,0.9967505
AMMAL,BOUMERDES,36.6333486,3.5913032
SEBAA CHIOUKH,TLEMCEN,35.1564008,-1.3605746
BOUIRA LAHDAB,DJELFA,35.2156173,3.1179793
DOUAR EL MA,EL-OUED,33.3738476,7.6857696
SIDI KHELLIL,EL-OUED,36.6436139,2.8472391
EL BORMA,OUARGLA,31.5948858,9.1635246
CHEGUIG,EL-BAYADH,33.9829587,1.1229566
TAMOKRA,BEJAIA,36.3980867,4.6671349
BOUMIA,BATNA,35.7060716,6.4674757
TAXLENT,BATNA,35.6055933,5.800679
TALMINE,TIMIMOUN,29.3296013,-0.4986259
AIN OUKSIR,MEDEA,35.8536954,3.4698518
OULED ADDOUANE,SETIF,36.3375879,5.4374755
TESMART,BORDJ-BOU-ARRERIDJ,36.274077,4.7966871
TIFFECH,SOUK-AHRAS,36.1917829,7.7860128
KIMMEL,BATNA,35.2166875,6.5449007
BOUZEDJAR,AIN-TEMOUCHENT,35.5802687,-1.14895
LAZROU,BATNA,35.8073846,6.225302
AIN SANDEL,GUELMA,36.2430823,7.5132309
BENI ILMENE,MSILA,35.9443702,4.0809144
GHARROUS,MASCARA,35.141443,0.4672959
CHEFIA,EL-TARF,36.6597886,8.1068702
DREA,SOUK-AHRAS,36.1222482,7.8838947
AIN MADHI,LAGHOUAT,33.797062,2.3059156
KHALOUIA,MASCARA,35.464391,0.2984598
EL HAOUCH,BISKRA,34.5609494,6.0459519
KEF LAKHDAR,MEDEA,35.9282204,3.2928163
IDJEUR,TIZI-OUZOU,36.673917,4.536323
MFATHA,MEDEA,35.8833487,2.9363668
RAS EL AGBA,GUELMA,36.3685377,7.1986405
EL AOUINET,MEDEA,35.8932925,3.035866
TAYA,SETIF,35.9584611,5.9675897
AIN ERRICH,MSILA,34.4921828,4.047132
OULED AISSA,TIMIMOUN,29.4235586,-0.0891357
OUED EL ALENDA,EL-OUED,33.2308061,6.7613731
DJEMORAH,BISKRA,35.0689799,5.8448638
OULED DRISS,SOUK-AHRAS,36.3574912,8.0255425
AIN SOLTANE,SAIDA,34.9801657,0.3235537
TIZI MAHDI,MEDEA,36.2029612,2.7754465
OUED GHOUSSINE,CHLEF,36.4934787,1.4520393
MTARFA,MSILA,35.6888728,4.6525054
SIDI LAZREG,RELIZANE,35.6459245,0.7790301
MAOUKLANE,SETIF,36.424463,5.1138394
TIOUT,NAAMA,32.7750253,-0.4136828
IN AMGUEL,TAMANRASSET,23.6909837,5.1509434
THENIET EL ABED,BATNA,35.3334047,6.317364
HAMRAIA,EL-OUED,34.1103311,6.2299381
TIMEZRIT,BOUMERDES,36.6642218,3.7884864
BOURACHED,AIN-DEFLA,36.16983,1.9321167
EL OGLA,EL-OUED,33.2465995,6.9460807
SERAIDI,ANNABA,36.9115192,7.6752692
GOSBAT,BATNA,35.616384,5.470852
DOUI THABET,SAIDA,34.8930236,-0.0102394
DAR BEN ABDELLAH,RELIZANE,35.6981857,0.6876224
TIGHANIMINE,BATNA,35.1853431,6.249225
BENI HOCINE,SETIF,36.259056,5.1123686
TAZROUK,TAMANRASSET,23.4196225,6.2658907
CHIR,BATNA,35.2179401,6.132079
SELMANA,DJELFA,34.0307982,3.7265198
DOUAOUDA,ALGER,36.6864788,2.7961382
SIDI AYAD,BEJAIA,36.6119158,4.7151737
AIT R_ZINE,BEJAIA,36.368882,4.4866713
FOUM TOUB,BATNA,35.404396,6.5503509
DJEBILET ROSFA,TIARET,34.8464075,0.7943003
SAFSAF EL OUESRA,TEBESSA,34.9564825,8.2071255
BOULHAF DYR,TEBESSA,35.4883881,8.0696888
TAZGAIT,MOSTAGANEM,36.1273895,0.5439889
MAAMORA,BOUIRA,36.0331234,3.5514666
OUED MZI,LAGHOUAT,33.9208548,2.4348727
BEIDHA,LAGHOUAT,34.5285165,2.1555661
BESBES,OULED DJELLAL,34.1650307,4.9990113
FAIDJA,TIARET,34.8927319,1.961051
SEBSEB,GHARDAIA,32.1674106,3.587195
AMOURA,DJELFA,34.3543114,3.8708648
TILATOU,BATNA,35.3292158,5.7931239
GUETTARA,DJELFA,33.2917532,4.4125973
SIDI ZIANE,MEDEA,36.0353418,3.2499783
HARAZA,BORDJ-BOU-ARRERIDJ,36.1554527,4.2252617
DECHMIA,BOUIRA,36.1304762,3.5765765
HADJERET ENNOUS,TIPAZA,36.5730902,2.0534126
EL MAIN,BORDJ-BOU-ARRERIDJ,36.382437,4.7442746
HAMMAM MELOUANE,BLIDA,36.4869259,3.0446077
SAFEL EL OUIDEN,SOUK-AHRAS,35.9296248,7.4940406
OULED SIDI AHMED,SETIF,36.420574,5.7284895
OUM ALI,TEBESSA,35.0113285,8.3007443
DEHAHNA,MSILA,35.7334477,5.0300374
KHEDARA,SOUK-AHRAS,36.2941847,8.2581363
SEBGAG,LAGHOUAT,34.0295796,1.9269747
FERKANE,TEBESSA,34.4930295,7.3645623
BENI YENNI,TIZI-OUZOU,36.5829452,4.1964738
HASSASNA,AIN-TEMOUCHENT,35.2474884,-0.9447994
LES EUCALYPTUS,BEJAIA,36.6054437,4.6370324
BOUNOUH,TIZI-OUZOU,36.493265,3.9375656
OUM EL ASSEL,TINDOUF,28.6166225,-6.9797975
DELDOUL,TIMIMOUN,28.7700895,0.0520901
TIRCINE,SAIDA,34.9688799,0.6163804
REMILA,KHENCHELA,35.5871075,6.9034374
EL BNOUD,EL-BAYADH,32.3096365,0.2450916
OULED KHELLOUF,MILA,35.98497,6.0735927
TAMEST,ADRAR,27.4237416,-0.2457959
SIDI DAMED,MEDEA,35.8706851,3.2547826
TIDDA,TIARET,35.6025161,1.2706208
DJEBABRA,BLIDA,36.5835753,3.2689028
SERGHINE,TIARET,35.2543447,2.4856664
BOUDA,ADRAR,28.0051734,-0.4223955
ZERZOUR,MSILA,35.0848905,4.8341773
BENI ZENTIS,RELIZANE,36.1115307,0.6639245
BENYAHIA ABDERRAHMANE,MILA,36.2158595,6.0103474
METARFA,TIMIMOUN,28.5890013,-0.1499377
BENI MILLEUK,TIPAZA,36.4444593,1.7172136
TAGDEMT,TIARET,35.3347734,1.2290501
AIN SOLTANE,SOUK-AHRAS,36.1796759,7.3594933
SEBAA,ADRAR,28.2150178,-0.173775
EL HOUIDJBET,TEBESSA,35.2930512,8.2801524
MAALA,BOUIRA,36.4943805,3.5892339
SOUK EL HAD,RELIZANE,35.9567316,1.2462755
EL HAKIMIA,BOUIRA,36.0911365,3.7804959
CHELIA,KHENCHELA,35.3642294,6.7793901
OUM EL DJALIL,MEDEA,35.8304545,2.6669609
SIDI BELATTAR,MOSTAGANEM,36.0425123,0.2795334
AIN FRASS,MASCARA,35.2052754,-0.1553257
OULED MADHI,MSILA,35.4901754,4.6041787
OUM LAADHAM,DJELFA,33.7200204,4.5309925
METKAOUAK,BATNA,35.3236825,5.0149826
ZBARBAR,BOUIRA,36.4726655,3.513905
BOUKAIS,BECHAR,31.9244504,-2.4678608
MSARA,KHENCHELA,35.2394325,6.5726279
TIMMOUDI,BÉNI ABBÈS,29.321336,-1.1288101
DELDOUL,DJELFA,34.0499446,3.3681607
OULED HELLAL,MEDEA,35.9668362,2.531823
AGHBAL,TIPAZA,36.5028413,1.8458849
AIN BOUDINAR,MOSTAGANEM,35.9885604,0.2157357
MECHRAA HOUARI BOUMEDIENE,BECHAR,30.9320605,-2.7375766
FENOUGHIL,ADRAR,27.6060965,-0.3021104
NAIMA,TIARET,34.8070762,1.7094369
MAGRANE,EL-OUED,33.5625599,6.930939
EL AYADI BARBES,MILA,36.4357774,5.8197886
AISSAOUIA,MEDEA,36.4192489,3.2148733
BENI CHAIB,TISSEMSILT,35.8244324,1.796315
EL MEHARA,EL-BAYADH,33.2678794,0.2035833
OULED BOUACHRA,MEDEA,36.1019093,2.7121868
MADNA,TIARET,34.7539462,0.9831648
KHEMISSA,SOUK-AHRAS,36.1948087,7.6514541
OULED ANTAR,MEDEA,35.9461818,2.6009942
MERIDJA,BECHAR,31.5491648,-2.9473825
BIR FODDA,MSILA,34.815708,3.8554247
STAH GUENTIS,TEBESSA,34.8335854,7.4997884
TIFRA,BEJAIA,36.6663065,4.6974299
CHORFA,MASCARA,35.4306621,-0.2462883
BENI YAGOUB,DJELFA,34.4768743,2.818189
BENI GUECHA,EL-OUED,34.1119474,7.2871813
MZADA,SETIF,36.5458695,5.0839629
KHERRATA,SETIF,36.1935028,5.3549714
BOURAOUI BELHADEF,JIJEL,36.6955352,6.09517
KSABI,BÉNI ABBÈS,29.1270304,-0.9856597
BENI BOUATTAB,CHLEF,35.9902115,1.657264
